{
  "data": [
    {
      "stop_id": "12000321",
      "stop_code": "PJ785",
      "stop_name": "KOMPLEKS MUHIBBAH (BARAT)",
      "stop_lat": "3.15800900",
      "stop_lon": "101.57040000"
    },
    {
      "stop_id": "12000322",
      "stop_code": "PJ786",
      "stop_name": "SUNSURIA TECHNOLOGY CENTRE (UTARA)",
      "stop_lat": "3.15681500",
      "stop_lon": "101.56720000"
    },
    {
      "stop_id": "12000323",
      "stop_code": "PJ787",
      "stop_name": "SUNSURIA TECHNOLOGY CENTRE (BARAT)",
      "stop_lat": "3.15335500",
      "stop_lon": "101.56660000"
    },
    {
      "stop_id": "12000324",
      "stop_code": "PJ788",
      "stop_name": "SELANGOR SCIENCE PARK",
      "stop_lat": "3.15011200",
      "stop_lon": "101.56960000"
    },
    {
      "stop_id": "12000327",
      "stop_code": "PJ799",
      "stop_name": "ST JOSEPH'S INSTITUTION",
      "stop_lat": "3.13949800",
      "stop_lon": "101.59500000"
    },
    {
      "stop_id": "12000328",
      "stop_code": "PJ800",
      "stop_name": "SUNWAY SUTERA",
      "stop_lat": "3.13823800",
      "stop_lon": "101.59790000"
    },
    {
      "stop_id": "12000332",
      "stop_code": "PJ511",
      "stop_name": "TROPICANA GOLF CLUB",
      "stop_lat": "3.12857700",
      "stop_lon": "101.59370000"
    },
    {
      "stop_id": "12000333",
      "stop_code": "PJ806",
      "stop_name": "TROPICANA GRANDE",
      "stop_lat": "3.13180700",
      "stop_lon": "101.59460000"
    },
    {
      "stop_id": "12000334",
      "stop_code": "PJ807",
      "stop_name": "CASA TROPICANA",
      "stop_lat": "3.13717600",
      "stop_lon": "101.59490000"
    },
    {
      "stop_id": "12000335",
      "stop_code": "PJ808",
      "stop_name": "CITA DAMANSARA",
      "stop_lat": "3.14646800",
      "stop_lon": "101.59900000"
    },
    {
      "stop_id": "12000337",
      "stop_code": "KL2264",
      "stop_name": "KOMERSIAL BURHANUDDIN (1)",
      "stop_lat": "3.15222500",
      "stop_lon": "101.62070000"
    },
    {
      "stop_id": "12000338",
      "stop_code": "KL2265",
      "stop_name": "KOMERSIAL BURHANUDDIN (2)",
      "stop_lat": "3.15297600",
      "stop_lon": "101.62280000"
    },
    {
      "stop_id": "12000339",
      "stop_code": "KL2266",
      "stop_name": "(M1) VILLA FLORA CONDO",
      "stop_lat": "3.15364000",
      "stop_lon": "101.62460000"
    },
    {
      "stop_id": "12000340",
      "stop_code": "KL2267",
      "stop_name": "KIARA PARK CONDO",
      "stop_lat": "3.15427800",
      "stop_lon": "101.62650000"
    },
    {
      "stop_id": "12000341",
      "stop_code": "KL2332",
      "stop_name": "KG SG PENCHALA (1)",
      "stop_lat": "3.16174100",
      "stop_lon": "101.62550000"
    },
    {
      "stop_id": "12000342",
      "stop_code": "KL1447",
      "stop_name": "KG SG PENCHALA (2)",
      "stop_lat": "3.16009700",
      "stop_lon": "101.62420000"
    },
    {
      "stop_id": "12000343",
      "stop_code": "KL1445",
      "stop_name": "KG SG PENCHALA (3)",
      "stop_lat": "3.15995100",
      "stop_lon": "101.61850000"
    },
    {
      "stop_id": "12000346",
      "stop_code": "PJ796",
      "stop_name": "THE STRAND TIMUR",
      "stop_lat": "3.15536000",
      "stop_lon": "101.59560000"
    },
    {
      "stop_id": "12000347",
      "stop_code": "PJ368",
      "stop_name": "MRT SURIAN PINTU B",
      "stop_lat": "3.14994600",
      "stop_lon": "101.59309200"
    },
    {
      "stop_id": "12000348",
      "stop_code": "PJ83",
      "stop_name": "SRK SEKSYEN 11",
      "stop_lat": "3.16021267",
      "stop_lon": "101.59463490"
    },
    {
      "stop_id": "12000349",
      "stop_code": "PJ662",
      "stop_name": "(M1) D'VILLA AVENUE",
      "stop_lat": "3.16202500",
      "stop_lon": "101.59132000"
    },
    {
      "stop_id": "12000350",
      "stop_code": "PJ81",
      "stop_name": "AEON BIG KD",
      "stop_lat": "3.15976500",
      "stop_lon": "101.59110300"
    },
    {
      "stop_id": "12000351",
      "stop_code": "PJ86",
      "stop_name": "THE STRAND BARAT",
      "stop_lat": "3.15447200",
      "stop_lon": "101.59104700"
    },
    {
      "stop_id": "12000352",
      "stop_code": "PJ663",
      "stop_name": "DATARAN SUNWAY BARAT",
      "stop_lat": "3.15220700",
      "stop_lon": "101.59085200"
    },
    {
      "stop_id": "12000354",
      "stop_code": "PJ815",
      "stop_name": "DERET KEDAI PJU 7/7A",
      "stop_lat": "3.15829900",
      "stop_lon": "101.60463500"
    },
    {
      "stop_id": "12000355",
      "stop_code": "PJ816",
      "stop_name": "KOMERSIAL PJU 7/16",
      "stop_lat": "3.15974600",
      "stop_lon": "101.60353400"
    },
    {
      "stop_id": "12000358",
      "stop_code": "PJ809",
      "stop_name": "MRT MUTIARA DAMANSARA PINTU B",
      "stop_lat": "3.15568700",
      "stop_lon": "101.60818700"
    },
    {
      "stop_id": "12000359",
      "stop_code": "PJ530",
      "stop_name": "1 UTAMA BUS TERMINAL",
      "stop_lat": "3.15121178",
      "stop_lon": "101.61298450"
    },
    {
      "stop_id": "12000360",
      "stop_code": "PJ721",
      "stop_name": "1 UTAMA",
      "stop_lat": "3.15024249",
      "stop_lon": "101.61490300"
    },
    {
      "stop_id": "12000368",
      "stop_code": "PJ533",
      "stop_name": "IKEA (BARAT)",
      "stop_lat": "3.15499700",
      "stop_lon": "101.61071000"
    },
    {
      "stop_id": "12000369",
      "stop_code": "PJ541",
      "stop_name": "SMK BANDAR UTAMA BARAT",
      "stop_lat": "3.14342975",
      "stop_lon": "101.61466920"
    },
    {
      "stop_id": "12000370",
      "stop_code": "PJ542",
      "stop_name": "SMK BANDAR UTAMA DAMANSARA 2",
      "stop_lat": "3.13926000",
      "stop_lon": "101.61023900"
    },
    {
      "stop_id": "12000371",
      "stop_code": "PJ781",
      "stop_name": "PANGSAPURI PELANGI",
      "stop_lat": "3.13910900",
      "stop_lon": "101.61394100"
    },
    {
      "stop_id": "12000372",
      "stop_code": "PJ782",
      "stop_name": "SK BANDAR UTAMA DAMANSARA 2",
      "stop_lat": "3.14144000",
      "stop_lon": "101.61520900"
    },
    {
      "stop_id": "12000373",
      "stop_code": "PJ783",
      "stop_name": "SMK BANDAR UTAMA UTARA",
      "stop_lat": "3.14276800",
      "stop_lon": "101.61557300"
    },
    {
      "stop_id": "12000375",
      "stop_code": "SL552",
      "stop_name": "STELLARS GROCER",
      "stop_lat": "3.21182300",
      "stop_lon": "101.57740500"
    },
    {
      "stop_id": "12000377",
      "stop_code": "SL554",
      "stop_name": "HOSPITAL SG BULOH PINTU D (OPP)",
      "stop_lat": "3.21773400",
      "stop_lon": "101.58139600"
    },
    {
      "stop_id": "12000378",
      "stop_code": "SL555",
      "stop_name": "HOSPITAL SG BULOH PINTU B (OPP)",
      "stop_lat": "3.22077500",
      "stop_lon": "101.58339500"
    },
    {
      "stop_id": "12000379",
      "stop_code": "SL556",
      "stop_name": "KOLEJ SAINS BERSEKUTU KESIHATAN (OPP)",
      "stop_lat": "3.22137200",
      "stop_lon": "101.58745000"
    },
    {
      "stop_id": "12000380",
      "stop_code": "SL557",
      "stop_name": "UITM SG BULOH",
      "stop_lat": "3.21966000",
      "stop_lon": "101.59332700"
    },
    {
      "stop_id": "12000382",
      "stop_code": "SL559",
      "stop_name": "(M1) UITM SG BULOH (OPP)",
      "stop_lat": "3.21940500",
      "stop_lon": "101.59323800"
    },
    {
      "stop_id": "12000383",
      "stop_code": "SL560",
      "stop_name": "KOLEJ SAINS BERSEKUTU KESIHATAN",
      "stop_lat": "3.22116400",
      "stop_lon": "101.58747300"
    },
    {
      "stop_id": "12000384",
      "stop_code": "SL561",
      "stop_name": "HOSPITAL SG BULOH PINTU B",
      "stop_lat": "3.22068800",
      "stop_lon": "101.58376900"
    },
    {
      "stop_id": "12000385",
      "stop_code": "SL562",
      "stop_name": "HOSPITAL SG BULOH PINTU D",
      "stop_lat": "3.21782000",
      "stop_lon": "101.58165300"
    },
    {
      "stop_id": "12000388",
      "stop_code": "SL565",
      "stop_name": "SK SG BULOH (OPP)",
      "stop_lat": "3.21488200",
      "stop_lon": "101.57757200"
    },
    {
      "stop_id": "12000393",
      "stop_code": "SL570",
      "stop_name": "DATARAN VILLA PUTRA",
      "stop_lat": "3.22647100",
      "stop_lon": "101.56731500"
    },
    {
      "stop_id": "12000394",
      "stop_code": "SL571",
      "stop_name": "PERINDUSTRIAN BRP 8",
      "stop_lat": "3.22936800",
      "stop_lon": "101.56527700"
    },
    {
      "stop_id": "12000396",
      "stop_code": "SA996",
      "stop_name": "PERUMAHAN BRP 6",
      "stop_lat": "3.22624800",
      "stop_lon": "101.55704300"
    },
    {
      "stop_id": "12000401",
      "stop_code": "SA896",
      "stop_name": "PUSAT KOMERSIAL TSB",
      "stop_lat": "3.20851000",
      "stop_lon": "101.57197700"
    },
    {
      "stop_id": "12000402",
      "stop_code": "SA897",
      "stop_name": "SME AEROSPACE",
      "stop_lat": "3.20816300",
      "stop_lon": "101.57433100"
    },
    {
      "stop_id": "12000403",
      "stop_code": "SA639",
      "stop_name": "DEPOT SIMPANAN PERTAHANAN",
      "stop_lat": "3.20839800",
      "stop_lon": "101.56630300"
    },
    {
      "stop_id": "12000404",
      "stop_code": "SA640",
      "stop_name": "KUARTERS DEPOT SIMPANAN PERTAHANAN",
      "stop_lat": "3.20762900",
      "stop_lon": "101.56360400"
    },
    {
      "stop_id": "12000406",
      "stop_code": "SA606",
      "stop_name": "KUARTERS ATM KEM PAYA JARAS (OPP)",
      "stop_lat": "3.20327300",
      "stop_lon": "101.55925900"
    },
    {
      "stop_id": "12000407",
      "stop_code": "SA607",
      "stop_name": "(M2) KUARTERS JKR UNIT TENTERA (OPP)",
      "stop_lat": "3.20166200",
      "stop_lon": "101.55692300"
    },
    {
      "stop_id": "12000408",
      "stop_code": "SA608",
      "stop_name": "BALAIRAYA KG PAYA JARAS (OPP)",
      "stop_lat": "3.20027800",
      "stop_lon": "101.55332000"
    },
    {
      "stop_id": "12000409",
      "stop_code": "SA609",
      "stop_name": "SIMPANG JLN RAHIDIN",
      "stop_lat": "3.20029700",
      "stop_lon": "101.54874000"
    },
    {
      "stop_id": "12000410",
      "stop_code": "SA1006",
      "stop_name": "SRA PAYA JARAS",
      "stop_lat": "3.20047200",
      "stop_lon": "101.54555500"
    },
    {
      "stop_id": "12000411",
      "stop_code": "SA1007",
      "stop_name": "PINGGIRAN SG. BULOH",
      "stop_lat": "3.19949000",
      "stop_lon": "101.54226100"
    },
    {
      "stop_id": "12000412",
      "stop_code": "SA1008",
      "stop_name": "SIMPANG Y KUBU GAJAH",
      "stop_lat": "3.19955600",
      "stop_lon": "101.53881800"
    },
    {
      "stop_id": "12000413",
      "stop_code": "SA1009",
      "stop_name": "RUMAH LOT 2876 (OPP)",
      "stop_lat": "3.19796700",
      "stop_lon": "101.53633100"
    },
    {
      "stop_id": "12000414",
      "stop_code": "SA1010",
      "stop_name": "TASKA PERMATA KEMAS",
      "stop_lat": "3.19577400",
      "stop_lon": "101.53133100"
    },
    {
      "stop_id": "12000415",
      "stop_code": "SA1011",
      "stop_name": "KG KUBU GAJAH",
      "stop_lat": "3.19569300",
      "stop_lon": "101.52942200"
    },
    {
      "stop_id": "12000416",
      "stop_code": "SA1012",
      "stop_name": "BALAIRAYA KG PAYA JARAS HILIR (OPP)",
      "stop_lat": "3.19607700",
      "stop_lon": "101.53167600"
    },
    {
      "stop_id": "12000417",
      "stop_code": "SA1013",
      "stop_name": "RUMAH LOT 2876",
      "stop_lat": "3.19801500",
      "stop_lon": "101.53610700"
    },
    {
      "stop_id": "12000419",
      "stop_code": "SA1015",
      "stop_name": "U19 TMN SRI BULOH",
      "stop_lat": "3.20336500",
      "stop_lon": "101.54275500"
    },
    {
      "stop_id": "12000420",
      "stop_code": "SA631",
      "stop_name": "PERSIMPANGAN JLN KG KUBU GAJAH",
      "stop_lat": "3.20320900",
      "stop_lon": "101.54635600"
    },
    {
      "stop_id": "12000421",
      "stop_code": "SA632",
      "stop_name": "KEM PAYA JARAS",
      "stop_lat": "3.20100600",
      "stop_lon": "101.54802200"
    },
    {
      "stop_id": "12000422",
      "stop_code": "SA633",
      "stop_name": "BALAIRAYA KG PAYA JARAS",
      "stop_lat": "3.20045400",
      "stop_lon": "101.55317600"
    },
    {
      "stop_id": "12000423",
      "stop_code": "SA634",
      "stop_name": "KUARTERS JKR UNIT TENTERA",
      "stop_lat": "3.20176200",
      "stop_lon": "101.55678200"
    },
    {
      "stop_id": "12000424",
      "stop_code": "SA635",
      "stop_name": "KUARTERS ATM KEM PAYA JARAS",
      "stop_lat": "3.20289100",
      "stop_lon": "101.55847000"
    },
    {
      "stop_id": "12000425",
      "stop_code": "SA636",
      "stop_name": "SMK BANDAR BARU SG BULOH",
      "stop_lat": "3.20653700",
      "stop_lon": "101.56222400"
    },
    {
      "stop_id": "12000426",
      "stop_code": "SA637",
      "stop_name": "KUARTERS DEPOT SIMPANAN PERTAHANAN (OPP)",
      "stop_lat": "3.20775800",
      "stop_lon": "101.56349400"
    },
    {
      "stop_id": "12000434",
      "stop_code": "SA1017",
      "stop_name": "PREMISE 196",
      "stop_lat": "3.19811600",
      "stop_lon": "101.57253700"
    },
    {
      "stop_id": "12000435",
      "stop_code": "SA779",
      "stop_name": "DERET KEDAI JLN PERKHIDMATAN",
      "stop_lat": "3.19749400",
      "stop_lon": "101.56978000"
    },
    {
      "stop_id": "12000436",
      "stop_code": "SA780",
      "stop_name": "SJKC SG BULOH (OPP)",
      "stop_lat": "3.19536400",
      "stop_lon": "101.56975100"
    },
    {
      "stop_id": "12000437",
      "stop_code": "SA781",
      "stop_name": "IPD SG BULOH",
      "stop_lat": "3.19417100",
      "stop_lon": "101.56743500"
    },
    {
      "stop_id": "12000449",
      "stop_code": "PJ630",
      "stop_name": "JEJANTAS LDP SS 21 UTARA",
      "stop_lat": "3.13517887",
      "stop_lon": "101.62450510"
    },
    {
      "stop_id": "12000450",
      "stop_code": "PJ208",
      "stop_name": "KOMERSIAL SS 21/56B",
      "stop_lat": "3.13799801",
      "stop_lon": "101.62269680"
    },
    {
      "stop_id": "12000451",
      "stop_code": "PJ142",
      "stop_name": "KOMERSIAL SS 21/1A",
      "stop_lat": "3.13541233",
      "stop_lon": "101.62100140"
    },
    {
      "stop_id": "12000452",
      "stop_code": "PJ726",
      "stop_name": "(M1) JEJANTAS SPRINT SS 21 TIMUR",
      "stop_lat": "3.13238501",
      "stop_lon": "101.62160930"
    },
    {
      "stop_id": "12000453",
      "stop_code": "PJ723",
      "stop_name": "JEJANTAS SPRINT SS 22 BARAT",
      "stop_lat": "3.13215182",
      "stop_lon": "101.62072170"
    },
    {
      "stop_id": "12000457",
      "stop_code": "PJ728",
      "stop_name": "TROPICANA MALL",
      "stop_lat": "3.13115456",
      "stop_lon": "101.62844330"
    },
    {
      "stop_id": "12000459",
      "stop_code": "KL1457",
      "stop_name": "KOMERSIAL TUN FUAD (2)",
      "stop_lat": "3.14222318",
      "stop_lon": "101.62954420"
    },
    {
      "stop_id": "12000467",
      "stop_code": "KL1451",
      "stop_name": "PERUMAHAN ABANG HJ OPENG",
      "stop_lat": "3.14225483",
      "stop_lon": "101.62989480"
    },
    {
      "stop_id": "12000468",
      "stop_code": "KL1456",
      "stop_name": "KOMERSIAL WAN KADIR",
      "stop_lat": "3.13966237",
      "stop_lon": "101.62918650"
    },
    {
      "stop_id": "12000474",
      "stop_code": "PJ620",
      "stop_name": "KG SERI DAMANSARA",
      "stop_lat": "3.13158109",
      "stop_lon": "101.63194850"
    },
    {
      "stop_id": "12000479",
      "stop_code": "PJ216",
      "stop_name": "PASAR SEKSYEN 17",
      "stop_lat": "3.12005900",
      "stop_lon": "101.63216510"
    },
    {
      "stop_id": "12000481",
      "stop_code": "PJ219",
      "stop_name": "(M1) HAPPY MANSION APARTMENT",
      "stop_lat": "3.12339254",
      "stop_lon": "101.63402500"
    },
    {
      "stop_id": "12000482",
      "stop_code": "PJ220",
      "stop_name": "HAPPY APARTMENT GATE A",
      "stop_lat": "3.12470547",
      "stop_lon": "101.63456160"
    },
    {
      "stop_id": "12000503",
      "stop_code": "SA1022",
      "stop_name": "PETRONAS SEKSYEN U3",
      "stop_lat": "3.15385100",
      "stop_lon": "101.54854900"
    },
    {
      "stop_id": "12000518",
      "stop_code": "PJ103",
      "stop_name": "PANGSAPURI TANJUNG SEK 6",
      "stop_lat": "3.15537372",
      "stop_lon": "101.57565440"
    },
    {
      "stop_id": "12000520",
      "stop_code": "PJ106",
      "stop_name": "KOMERSIAL SEK 6 (BARAT)",
      "stop_lat": "3.15992973",
      "stop_lon": "101.57410570"
    },
    {
      "stop_id": "12000521",
      "stop_code": "PJ658",
      "stop_name": "TAMAN INDUSTRI SG BULOH (UTARA)",
      "stop_lat": "3.16193500",
      "stop_lon": "101.57061100"
    },
    {
      "stop_id": "12000524",
      "stop_code": "SA670",
      "stop_name": "PANGSAPURI SUBANG PERDANA",
      "stop_lat": "3.15081348",
      "stop_lon": "101.54111220"
    },
    {
      "stop_id": "12000526",
      "stop_code": "SA675",
      "stop_name": "KOMERSIAL SUBANG PERDANA (SELATAN)",
      "stop_lat": "3.14875200",
      "stop_lon": "101.54812100"
    },
    {
      "stop_id": "12000530",
      "stop_code": "KL1141",
      "stop_name": "PREMISE NO 83",
      "stop_lat": "3.13237000",
      "stop_lon": "101.67261100"
    },
    {
      "stop_id": "12000532",
      "stop_code": "KL2148",
      "stop_name": "(M1) MID VALLEY SOUTH COURT",
      "stop_lat": "3.11634269",
      "stop_lon": "101.67610830"
    },
    {
      "stop_id": "12000534",
      "stop_code": "KL1160",
      "stop_name": "BUKIT BANDARAYA",
      "stop_lat": "3.13924400",
      "stop_lon": "101.67217500"
    },
    {
      "stop_id": "12000536",
      "stop_code": "KL1137",
      "stop_name": "KONDO SRI PENAGA",
      "stop_lat": "3.14220641",
      "stop_lon": "101.66458720"
    },
    {
      "stop_id": "12000538",
      "stop_code": "KL1917",
      "stop_name": "MASJID SAIDINA UMAR (BARAT)",
      "stop_lat": "3.14930848",
      "stop_lon": "101.65637910"
    },
    {
      "stop_id": "12000539",
      "stop_code": "KL1170",
      "stop_name": "PLAZA DAMANSARA (BARAT)",
      "stop_lat": "3.14881632",
      "stop_lon": "101.65334280"
    },
    {
      "stop_id": "12000540",
      "stop_code": "KL1919",
      "stop_name": "TEKNOLOGI PENDIDIKAN (BARAT)",
      "stop_lat": "3.14608055",
      "stop_lon": "101.64794530"
    },
    {
      "stop_id": "12000541",
      "stop_code": "KL1918",
      "stop_name": "PUSAT SAINS NEGARA (BARAT)",
      "stop_lat": "3.14702840",
      "stop_lon": "101.64506800"
    },
    {
      "stop_id": "12000542",
      "stop_code": "KL1807",
      "stop_name": "SMK SERI HARTAMAS",
      "stop_lat": "3.15795860",
      "stop_lon": "101.64795770"
    },
    {
      "stop_id": "12000543",
      "stop_code": "KL1480",
      "stop_name": "DESA SRI HARTAMAS (1)",
      "stop_lat": "3.16054200",
      "stop_lon": "101.64957500"
    },
    {
      "stop_id": "12000546",
      "stop_code": "KL1904",
      "stop_name": "(M1) PUSAT SAINS NEGARA (TIMUR)",
      "stop_lat": "3.14744578",
      "stop_lon": "101.64513770"
    },
    {
      "stop_id": "12000550",
      "stop_code": "KL1177",
      "stop_name": "UOA DAMANSARA",
      "stop_lat": "3.15151904",
      "stop_lon": "101.66671490"
    },
    {
      "stop_id": "12000551",
      "stop_code": "KL1178",
      "stop_name": "(M2) WISMA DAMANSARA (TIMUR)",
      "stop_lat": "3.15071501",
      "stop_lon": "101.66867640"
    },
    {
      "stop_id": "12000557",
      "stop_code": "KL1916",
      "stop_name": "WISMA DAMANSARA (BARAT)",
      "stop_lat": "3.15060104",
      "stop_lon": "101.66922800"
    },
    {
      "stop_id": "12000562",
      "stop_code": "KL1175",
      "stop_name": "HP TOWER",
      "stop_lat": "3.15188200",
      "stop_lon": "101.66379000"
    },
    {
      "stop_id": "12000563",
      "stop_code": "KL1015",
      "stop_name": "LEMBAGA PEPERIKSAAN",
      "stop_lat": "3.16880556",
      "stop_lon": "101.67090840"
    },
    {
      "stop_id": "12000564",
      "stop_code": "KL1016",
      "stop_name": "PUBLIKA",
      "stop_lat": "3.17019400",
      "stop_lon": "101.66533800"
    },
    {
      "stop_id": "12000572",
      "stop_code": "PJ79",
      "stop_name": "KOMERSIAL NURI 7A",
      "stop_lat": "3.17258143",
      "stop_lon": "101.57635793"
    },
    {
      "stop_id": "12000606",
      "stop_code": "SA1019",
      "stop_name": "RHB KG BARU SG BULOH",
      "stop_lat": "3.19824630",
      "stop_lon": "101.56795310"
    },
    {
      "stop_id": "12000623",
      "stop_code": "SA605",
      "stop_name": "SMK BANDAR BARU SG BULOH (OPP)",
      "stop_lat": "3.20586000",
      "stop_lon": "101.56182100"
    },
    {
      "stop_id": "12000634",
      "stop_code": "SA1018",
      "stop_name": "(M1) PANGSAPURI MEDAN MAS",
      "stop_lat": "3.19558140",
      "stop_lon": "101.56639000"
    },
    {
      "stop_id": "12000636",
      "stop_code": "KL1138",
      "stop_name": "BSC (SELATAN)",
      "stop_lat": "3.14306700",
      "stop_lon": "101.66796900"
    },
    {
      "stop_id": "12000637",
      "stop_code": "KL1148",
      "stop_name": "SMK BUKIT BANDARAYA",
      "stop_lat": "3.14256400",
      "stop_lon": "101.67163100"
    },
    {
      "stop_id": "12000638",
      "stop_code": "KL1149",
      "stop_name": "KONDO BANGSAR INDAH",
      "stop_lat": "3.14023900",
      "stop_lon": "101.67271900"
    },
    {
      "stop_id": "12000639",
      "stop_code": "KL1150",
      "stop_name": "JUNC JLN LIMAU BESAR",
      "stop_lat": "3.13808300",
      "stop_lon": "101.67341100"
    },
    {
      "stop_id": "12000640",
      "stop_code": "KL2335",
      "stop_name": "PETRON",
      "stop_lat": "3.12758600",
      "stop_lon": "101.67550300"
    },
    {
      "stop_id": "12000641",
      "stop_code": "KL1134",
      "stop_name": "KOMERSIAL TELAWI (SELATAN)",
      "stop_lat": "3.13229500",
      "stop_lon": "101.67251400"
    },
    {
      "stop_id": "12000642",
      "stop_code": "KL1135",
      "stop_name": "KOMERSIAL TELAWI (UTARA)",
      "stop_lat": "3.13408300",
      "stop_lon": "101.67247200"
    },
    {
      "stop_id": "12000644",
      "stop_code": "KL1136",
      "stop_name": "BSC (UTARA)",
      "stop_lat": "3.14238300",
      "stop_lon": "101.66796700"
    },
    {
      "stop_id": "12000645",
      "stop_code": "KL1162",
      "stop_name": "DC MALL",
      "stop_lat": "3.14605600",
      "stop_lon": "101.66062800"
    },
    {
      "stop_id": "12000646",
      "stop_code": "PJ722",
      "stop_name": "SMK DAMANSARA UTAMA",
      "stop_lat": "3.13743100",
      "stop_lon": "101.62445800"
    },
    {
      "stop_id": "12000647",
      "stop_code": "KL2337",
      "stop_name": "DESA SRI HARTAMAS (2)",
      "stop_lat": "3.16196231",
      "stop_lon": "101.64826090"
    },
    {
      "stop_id": "12000648",
      "stop_code": "KL2338",
      "stop_name": "PLAZA CRYSTELVILLE",
      "stop_lat": "3.16307900",
      "stop_lon": "101.65139700"
    },
    {
      "stop_id": "12000649",
      "stop_code": "KL1485",
      "stop_name": "PLAZA PRISMA VILLE",
      "stop_lat": "3.16117800",
      "stop_lon": "101.64965800"
    },
    {
      "stop_id": "12000651",
      "stop_code": "PJ819",
      "stop_name": "POS DAMANSARA JAYA",
      "stop_lat": "3.12772200",
      "stop_lon": "101.61581900"
    },
    {
      "stop_id": "12000652",
      "stop_code": "KL1905",
      "stop_name": "TEKNOLOGI PENDIDIKAN (TIMUR)",
      "stop_lat": "3.14636434",
      "stop_lon": "101.64786700"
    },
    {
      "stop_id": "12000653",
      "stop_code": "PJ489",
      "stop_name": "ATRIA",
      "stop_lat": "3.12663300",
      "stop_lon": "101.61748100"
    },
    {
      "stop_id": "12000654",
      "stop_code": "PJ510",
      "stop_name": "KDU",
      "stop_lat": "3.12690600",
      "stop_lon": "101.62245300"
    },
    {
      "stop_id": "12000655",
      "stop_code": "KL1171",
      "stop_name": "PLAZA DAMANSARA (TIMUR)",
      "stop_lat": "3.15071243",
      "stop_lon": "101.65321760"
    },
    {
      "stop_id": "12000656",
      "stop_code": "KL1906",
      "stop_name": "MASJID SAIDINA UMAR (TIMUR)",
      "stop_lat": "3.14955470",
      "stop_lon": "101.65640090"
    },
    {
      "stop_id": "12000657",
      "stop_code": "PJ631",
      "stop_name": "JEJANTAS LDP SS 20 SELATAN",
      "stop_lat": "3.13482000",
      "stop_lon": "101.62494400"
    },
    {
      "stop_id": "12000659",
      "stop_code": "KL2340",
      "stop_name": "MRT SEMANTAN PINTU A",
      "stop_lat": "3.15083600",
      "stop_lon": "101.66518600"
    },
    {
      "stop_id": "12000668",
      "stop_code": "PJ795",
      "stop_name": "DATARAN SUNWAY TIMUR",
      "stop_lat": "3.15175300",
      "stop_lon": "101.59563300"
    },
    {
      "stop_id": "12000669",
      "stop_code": "PJ797",
      "stop_name": "PANGSAPURI DEDAP BLOK 10",
      "stop_lat": "3.15817800",
      "stop_lon": "101.59509700"
    },
    {
      "stop_id": "12000670",
      "stop_code": "KL1174",
      "stop_name": "(M1) MRT SEMANTAN PINTU B",
      "stop_lat": "3.15159200",
      "stop_lon": "101.66561100"
    },
    {
      "stop_id": "12000671",
      "stop_code": "PJ798",
      "stop_name": "PANGSAPURI DEDAP BLOK 1",
      "stop_lat": "3.15784400",
      "stop_lon": "101.59135300"
    },
    {
      "stop_id": "12000672",
      "stop_code": "KL1021",
      "stop_name": "MATRADE",
      "stop_lat": "3.17543900",
      "stop_lon": "101.66729700"
    },
    {
      "stop_id": "12000673",
      "stop_code": "KL1895",
      "stop_name": "KOMPLEKS MAHKAMAH KUALA LUMPUR",
      "stop_lat": "3.17610600",
      "stop_lon": "101.67142200"
    },
    {
      "stop_id": "12000674",
      "stop_code": "KL1026",
      "stop_name": "WISMA HASIL",
      "stop_lat": "3.17345300",
      "stop_lon": "101.67288600"
    },
    {
      "stop_id": "12000675",
      "stop_code": "KL1507",
      "stop_name": "HIGH COMMISSION OF INDIA (OLD)",
      "stop_lat": "3.15833074",
      "stop_lon": "101.67129380"
    },
    {
      "stop_id": "12000676",
      "stop_code": "PJ375",
      "stop_name": "PERDANA SHOPPING CENTRE",
      "stop_lat": "3.16754000",
      "stop_lon": "101.60643100"
    },
    {
      "stop_id": "12000677",
      "stop_code": "PJ817",
      "stop_name": "PERDANA EXCLUSIVE CONDO",
      "stop_lat": "3.16938300",
      "stop_lon": "101.60533600"
    },
    {
      "stop_id": "12000678",
      "stop_code": "PJ377",
      "stop_name": "METROPOLITAN SQUARE",
      "stop_lat": "3.16605800",
      "stop_lon": "101.60797940"
    },
    {
      "stop_id": "12000682",
      "stop_code": "PJ822",
      "stop_name": "OASIS BANDAR UTAMA",
      "stop_lat": "3.15029800",
      "stop_lon": "101.61013800"
    },
    {
      "stop_id": "12000684",
      "stop_code": "PJ532",
      "stop_name": "1 UTAMA - LDP",
      "stop_lat": "3.15043400",
      "stop_lon": "101.61652420"
    },
    {
      "stop_id": "12000685",
      "stop_code": "PJ789",
      "stop_name": "D'SHIRE VILLA",
      "stop_lat": "3.15230700",
      "stop_lon": "101.58457700"
    },
    {
      "stop_id": "12000686",
      "stop_code": "PJ359",
      "stop_name": "SMK SEK 4 KD",
      "stop_lat": "3.15220900",
      "stop_lon": "101.58193600"
    },
    {
      "stop_id": "12000687",
      "stop_code": "PJ362",
      "stop_name": "(M1) APT SEMARAK BLOCK 3",
      "stop_lat": "3.15394000",
      "stop_lon": "101.57991100"
    },
    {
      "stop_id": "12000689",
      "stop_code": "PJ354",
      "stop_name": "JEJANTAS APT SEROJA",
      "stop_lat": "3.15355500",
      "stop_lon": "101.57777000"
    },
    {
      "stop_id": "12000690",
      "stop_code": "PJ660",
      "stop_name": "PERSIMPANGAN SEPAH PUTERI 5/2",
      "stop_lat": "3.15624700",
      "stop_lon": "101.58305300"
    },
    {
      "stop_id": "12000691",
      "stop_code": "PJ92",
      "stop_name": "APT SIANTAN (TIMUR)",
      "stop_lat": "3.15636800",
      "stop_lon": "101.58528600"
    },
    {
      "stop_id": "12000693",
      "stop_code": "PJ90",
      "stop_name": "APT CARMILA (UTARA)",
      "stop_lat": "3.15953400",
      "stop_lon": "101.58696600"
    },
    {
      "stop_id": "12000695",
      "stop_code": "PJ790",
      "stop_name": "SEK RENDAH AGAMA SEKSYEN 5",
      "stop_lat": "3.16077200",
      "stop_lon": "101.58766300"
    },
    {
      "stop_id": "12000697",
      "stop_code": "PJ665",
      "stop_name": "MASJID KOTA DAMANSARA",
      "stop_lat": "3.16158400",
      "stop_lon": "101.58686400"
    },
    {
      "stop_id": "12000698",
      "stop_code": "PJ89",
      "stop_name": "APT CARLINA (SELATAN)",
      "stop_lat": "3.15822800",
      "stop_lon": "101.58719900"
    },
    {
      "stop_id": "12000699",
      "stop_code": "PJ91",
      "stop_name": "APT SIANTAN (BARAT)",
      "stop_lat": "3.15611200",
      "stop_lon": "101.58501300"
    },
    {
      "stop_id": "12000700",
      "stop_code": "PJ666",
      "stop_name": "KOMERSIAL SEPAH PUTERI 5/1B",
      "stop_lat": "3.15610500",
      "stop_lon": "101.58315400"
    },
    {
      "stop_id": "12000703",
      "stop_code": "SL553",
      "stop_name": "SMK SIERRAMAS (Opp)",
      "stop_lat": "3.21447200",
      "stop_lon": "101.57856700"
    },
    {
      "stop_id": "12000705",
      "stop_code": "PJ350",
      "stop_name": "BESTARI DE KOTA (SELATAN)",
      "stop_lat": "3.16377200",
      "stop_lon": "101.57399500"
    },
    {
      "stop_id": "12000706",
      "stop_code": "PJ351",
      "stop_name": "BESTARI DE KOTA (TIMUR)",
      "stop_lat": "3.16502200",
      "stop_lon": "101.57558000"
    },
    {
      "stop_id": "12000707",
      "stop_code": "PJ74",
      "stop_name": "PERUMAHAN JLN NURI",
      "stop_lat": "3.16739200",
      "stop_lon": "101.57714000"
    },
    {
      "stop_id": "12000708",
      "stop_code": "PJ78",
      "stop_name": "PANGSAPURI KASIA",
      "stop_lat": "3.17015900",
      "stop_lon": "101.57534570"
    },
    {
      "stop_id": "12000709",
      "stop_code": "PJ801",
      "stop_name": "KASTURI IDAMAN",
      "stop_lat": "3.17674700",
      "stop_lon": "101.57732200"
    },
    {
      "stop_id": "12000710",
      "stop_code": "PJ69",
      "stop_name": "PANGSAPURI IXORA",
      "stop_lat": "3.17390000",
      "stop_lon": "101.57550400"
    },
    {
      "stop_id": "12000712",
      "stop_code": "SA998",
      "stop_name": "PERUMAHAN 1A/6",
      "stop_lat": "3.21183300",
      "stop_lon": "101.56735600"
    },
    {
      "stop_id": "12000714",
      "stop_code": "PJ612",
      "stop_name": "KWASA LAND (RRI) (BARAT)",
      "stop_lat": "3.15531700",
      "stop_lon": "101.55935100"
    },
    {
      "stop_id": "12000716",
      "stop_code": "SA1002",
      "stop_name": "PERUMAHAN 1C/4",
      "stop_lat": "3.21856100",
      "stop_lon": "101.56435300"
    },
    {
      "stop_id": "12000718",
      "stop_code": "SA1005",
      "stop_name": "PASAR DAN BAZAR BBSB",
      "stop_lat": "3.21007800",
      "stop_lon": "101.56673100"
    },
    {
      "stop_id": "12000719",
      "stop_code": "SA743",
      "stop_name": "SUBANG 2 (UTARA)",
      "stop_lat": "3.15663900",
      "stop_lon": "101.54478000"
    },
    {
      "stop_id": "12000720",
      "stop_code": "SA744",
      "stop_name": "KOMERSIAL APOLLO U5/189 (TIMUR)",
      "stop_lat": "3.15729400",
      "stop_lon": "101.54663900"
    },
    {
      "stop_id": "12000721",
      "stop_code": "SA959",
      "stop_name": "KOMERSIAL APOLLO U5/192 (UTARA)",
      "stop_lat": "3.15960600",
      "stop_lon": "101.54790600"
    },
    {
      "stop_id": "12000722",
      "stop_code": "SA745",
      "stop_name": "KOMERSIAL BULAN  U5/J (UTARA)",
      "stop_lat": "3.16188600",
      "stop_lon": "101.54792800"
    },
    {
      "stop_id": "12000723",
      "stop_code": "SA736",
      "stop_name": "KOMERSIAL BULAN U5/164 (UTARA)",
      "stop_lat": "3.16302400",
      "stop_lon": "101.54932900"
    },
    {
      "stop_id": "12000724",
      "stop_code": "SA725",
      "stop_name": "SUBANG IDAMAN (SELATAN)",
      "stop_lat": "3.16546900",
      "stop_lon": "101.54889100"
    },
    {
      "stop_id": "12000725",
      "stop_code": "SA726",
      "stop_name": "PANGSAPURI MENTARI",
      "stop_lat": "3.16662800",
      "stop_lon": "101.54131400"
    },
    {
      "stop_id": "12000726",
      "stop_code": "SA727",
      "stop_name": "PANGSAPURI OPAL",
      "stop_lat": "3.16751700",
      "stop_lon": "101.54236400"
    },
    {
      "stop_id": "12000727",
      "stop_code": "SA728",
      "stop_name": "SURAU AL RAUDHAH. TMN NUSA SUBANG",
      "stop_lat": "3.16751700",
      "stop_lon": "101.54620400"
    },
    {
      "stop_id": "12000728",
      "stop_code": "SA729",
      "stop_name": "SUBANG IDAMAN (UTARA)",
      "stop_lat": "3.16754090",
      "stop_lon": "101.54894870"
    },
    {
      "stop_id": "12000729",
      "stop_code": "SA1023",
      "stop_name": "PERUMAHAN SUBANG BESTARI",
      "stop_lat": "3.16970500",
      "stop_lon": "101.55067300"
    },
    {
      "stop_id": "12000730",
      "stop_code": "SA677",
      "stop_name": "PANGSAPURI SRI GALAXY (UTARA)",
      "stop_lat": "3.17166650",
      "stop_lon": "101.55010970"
    },
    {
      "stop_id": "12000736",
      "stop_code": "SA638",
      "stop_name": "BANDAR BARU SUNGAI BULOH",
      "stop_lat": "3.20880500",
      "stop_lon": "101.56586200"
    },
    {
      "stop_id": "12000737",
      "stop_code": "SA746",
      "stop_name": "PANGSAPURI SRI GALAXY (SELATAN)",
      "stop_lat": "3.17177500",
      "stop_lon": "101.55022600"
    },
    {
      "stop_id": "12000740",
      "stop_code": "SA958",
      "stop_name": "KOMERSIAL APOLLO U5/192 (SELATAN)",
      "stop_lat": "3.15954400",
      "stop_lon": "101.54808100"
    },
    {
      "stop_id": "12000741",
      "stop_code": "SA741",
      "stop_name": "PDG APOLLO U5/189",
      "stop_lat": "3.15716670",
      "stop_lon": "101.54696760"
    },
    {
      "stop_id": "12000742",
      "stop_code": "KL1459",
      "stop_name": "PERUMAHAN ZAABA",
      "stop_lat": "3.14380544",
      "stop_lon": "101.62229580"
    },
    {
      "stop_id": "12000743",
      "stop_code": "SA742",
      "stop_name": "SUBANG 2 (SELATAN)",
      "stop_lat": "3.15684800",
      "stop_lon": "101.54500900"
    },
    {
      "stop_id": "12000744",
      "stop_code": "SA1027",
      "stop_name": "PUSAT KOMERSIAL STAR AVENUE",
      "stop_lat": "3.15397300",
      "stop_lon": "101.55207200"
    },
    {
      "stop_id": "12000745",
      "stop_code": "KL1450",
      "stop_name": "MASJID AT-TAQWA",
      "stop_lat": "3.14539700",
      "stop_lon": "101.62917800"
    },
    {
      "stop_id": "12000746",
      "stop_code": "PJ613",
      "stop_name": "KWASA LAND (RRI) (TIMUR)",
      "stop_lat": "3.15688600",
      "stop_lon": "101.56143800"
    },
    {
      "stop_id": "12000747",
      "stop_code": "PJ792",
      "stop_name": "KOMERSIAL SEK 6 (TIMUR)",
      "stop_lat": "3.16103900",
      "stop_lon": "101.58152500"
    },
    {
      "stop_id": "12000748",
      "stop_code": "PJ793",
      "stop_name": "SURAU AL-FALAH SEK 6",
      "stop_lat": "3.15764000",
      "stop_lon": "101.57704200"
    },
    {
      "stop_id": "12000749",
      "stop_code": "PJ104",
      "stop_name": "PANGSAPURI CEMPAKA SEK 6",
      "stop_lat": "3.15671400",
      "stop_lon": "101.57431200"
    },
    {
      "stop_id": "12000750",
      "stop_code": "PJ823",
      "stop_name": "MRT PHILEO DAMANSARA PINTU A",
      "stop_lat": "3.12841900",
      "stop_lon": "101.64274700"
    },
    {
      "stop_id": "12000751",
      "stop_code": "PJ709",
      "stop_name": "DAMANSARA INTAN",
      "stop_lat": "3.13076700",
      "stop_lon": "101.62863100"
    },
    {
      "stop_id": "12000752",
      "stop_code": "PJ710",
      "stop_name": "BOMBA SS2",
      "stop_lat": "3.12615800",
      "stop_lon": "101.62320000"
    },
    {
      "stop_id": "12000753",
      "stop_code": "SA650",
      "stop_name": "PERUMAHAN SUBANG PERDANA (UTARA)",
      "stop_lat": "3.15559600",
      "stop_lon": "101.53841700"
    },
    {
      "stop_id": "12000756",
      "stop_code": "SA672",
      "stop_name": "KOMERSIAL SUBANG PERDANA (BARAT)",
      "stop_lat": "3.14977700",
      "stop_lon": "101.54359620"
    },
    {
      "stop_id": "12000757",
      "stop_code": "PJ348",
      "stop_name": "JEJANTAS SS2/24 (UTARA)",
      "stop_lat": "3.11802500",
      "stop_lon": "101.62525000"
    },
    {
      "stop_id": "12000759",
      "stop_code": "PJ210",
      "stop_name": "HOTEL LISA DE INN",
      "stop_lat": "3.11823100",
      "stop_lon": "101.63065000"
    },
    {
      "stop_id": "12000760",
      "stop_code": "PJ233",
      "stop_name": "SHELL 17/22",
      "stop_lat": "3.12470300",
      "stop_lon": "101.63673600"
    },
    {
      "stop_id": "12000761",
      "stop_code": "PJ217",
      "stop_name": "PADANG SRK SRI DAMAI",
      "stop_lat": "3.12118100",
      "stop_lon": "101.63383300"
    },
    {
      "stop_id": "12000762",
      "stop_code": "PJ349",
      "stop_name": "KOMERSIAL SS19/8",
      "stop_lat": "3.11889830",
      "stop_lon": "101.62869400"
    },
    {
      "stop_id": "12000765",
      "stop_code": "PJ240",
      "stop_name": "TIARA DAMANSARA (UTARA)",
      "stop_lat": "3.12754200",
      "stop_lon": "101.63901500"
    },
    {
      "stop_id": "12000766",
      "stop_code": "PJ241",
      "stop_name": "TIARA DAMANSARA (SELATAN)",
      "stop_lat": "3.12497200",
      "stop_lon": "101.63845300"
    },
    {
      "stop_id": "12000767",
      "stop_code": "PJ236",
      "stop_name": "UIA PJ (BARAT)",
      "stop_lat": "3.12078300",
      "stop_lon": "101.63843100"
    },
    {
      "stop_id": "12000768",
      "stop_code": "PJ543",
      "stop_name": "CENTRE POINT BANDAR UTAMA",
      "stop_lat": "3.13765300",
      "stop_lon": "101.60933900"
    },
    {
      "stop_id": "12000769",
      "stop_code": "PJ237",
      "stop_name": "UIA PJ (SELATAN)",
      "stop_lat": "3.11880300",
      "stop_lon": "101.63911100"
    },
    {
      "stop_id": "12000770",
      "stop_code": "PJ780",
      "stop_name": "MASJID KAYU ARA",
      "stop_lat": "3.13544200",
      "stop_lon": "101.61241900"
    },
    {
      "stop_id": "12000771",
      "stop_code": "PJ245",
      "stop_name": "SMK SULTAN ABD SAMAD (TIMUR)",
      "stop_lat": "3.11862900",
      "stop_lon": "101.64512000"
    },
    {
      "stop_id": "12000772",
      "stop_code": "PJ247",
      "stop_name": "MAHSA UNIVERSITY (TIMUR)",
      "stop_lat": "3.11702200",
      "stop_lon": "101.64978260"
    },
    {
      "stop_id": "12000773",
      "stop_code": "KL1105",
      "stop_name": "FAKULTI PERNIAGAAN DAN PERAKAUNAN",
      "stop_lat": "3.11839500",
      "stop_lon": "101.65426700"
    },
    {
      "stop_id": "12000775",
      "stop_code": "KL1108",
      "stop_name": "PUSAT ASASI SAINS (DARI STN)",
      "stop_lat": "3.12181800",
      "stop_lon": "101.65826470"
    },
    {
      "stop_id": "12000776",
      "stop_code": "KL2137",
      "stop_name": "FAKULTI UNDANG-UNDANG",
      "stop_lat": "3.11861500",
      "stop_lon": "101.66102440"
    },
    {
      "stop_id": "12000777",
      "stop_code": "KL1103",
      "stop_name": "KOLEJ KEDIAMAN PERTAMA",
      "stop_lat": "3.11812400",
      "stop_lon": "101.65932260"
    },
    {
      "stop_id": "12000778",
      "stop_code": "KL1104",
      "stop_name": "FAKULTI KEJURUTERAAN (UTARA)",
      "stop_lat": "3.11909700",
      "stop_lon": "101.65553720"
    },
    {
      "stop_id": "12000779",
      "stop_code": "PJ260",
      "stop_name": "MAHSA UNIVERSITY (BARAT)",
      "stop_lat": "3.11796200",
      "stop_lon": "101.64804900"
    },
    {
      "stop_id": "12000780",
      "stop_code": "PJ263",
      "stop_name": "SMK SULTAN ABD SAMAD (BARAT)",
      "stop_lat": "3.11827100",
      "stop_lon": "101.64507370"
    },
    {
      "stop_id": "12000781",
      "stop_code": "PJ239",
      "stop_name": "PUSAT ASASI MAHALLAH AISYAH UIA",
      "stop_lat": "3.11961100",
      "stop_lon": "101.64320350"
    },
    {
      "stop_id": "12000782",
      "stop_code": "PJ619",
      "stop_name": "EASTIN HOTEL",
      "stop_lat": "3.12830400",
      "stop_lon": "101.64286000"
    },
    {
      "stop_id": "12000783",
      "stop_code": "PJ539",
      "stop_name": "1POWERHOUSE (OPP)",
      "stop_lat": "3.14495500",
      "stop_lon": "101.61712800"
    },
    {
      "stop_id": "12000784",
      "stop_code": "PJ537",
      "stop_name": "FIRST AVENUE",
      "stop_lat": "3.14776700",
      "stop_lon": "101.61463200"
    },
    {
      "stop_id": "12000786",
      "stop_code": "SA1021",
      "stop_name": "KOMPLEKS SURAU DARUS SALIM",
      "stop_lat": "3.15364700",
      "stop_lon": "101.55300100"
    },
    {
      "stop_id": "12000787",
      "stop_code": "SA1024",
      "stop_name": "KORMERSIAL SUBANG BESTARI",
      "stop_lat": "3.17791200",
      "stop_lon": "101.54847200"
    },
    {
      "stop_id": "12000788",
      "stop_code": "SA1026",
      "stop_name": "HELP UNIVERSITY",
      "stop_lat": "3.17785300",
      "stop_lon": "101.54878700"
    },
    {
      "stop_id": "12000789",
      "stop_code": "SA738",
      "stop_name": "KOMERSIAL BULAN U5/164 (SELATAN)",
      "stop_lat": "3.16426300",
      "stop_lon": "101.54948700"
    },
    {
      "stop_id": "12000790",
      "stop_code": "SA740",
      "stop_name": "KOMERSIAL BULAN U5/J (SELATAN)",
      "stop_lat": "3.16126000",
      "stop_lon": "101.54810200"
    },
    {
      "stop_id": "12000792",
      "stop_code": "SA1028",
      "stop_name": "GALERI PERABOT",
      "stop_lat": "3.13956300",
      "stop_lon": "101.54842900"
    },
    {
      "stop_id": "12000793",
      "stop_code": "SA902",
      "stop_name": "(M1) MAS HQ",
      "stop_lat": "3.13082500",
      "stop_lon": "101.55597000"
    },
    {
      "stop_id": "12000795",
      "stop_code": "SA1029",
      "stop_name": "WESTSTAR",
      "stop_lat": "3.13936500",
      "stop_lon": "101.54846500"
    },
    {
      "stop_id": "12000797",
      "stop_code": "KL1109",
      "stop_name": "PERPUSTAKAAN UM",
      "stop_lat": "3.12112000",
      "stop_lon": "101.65358020"
    },
    {
      "stop_id": "12000798",
      "stop_code": "KL2342",
      "stop_name": "INSTITUT PENGAJIAN SISWAZAH",
      "stop_lat": "3.12455500",
      "stop_lon": "101.66009400"
    },
    {
      "stop_id": "12000799",
      "stop_code": "KL2343",
      "stop_name": "KOLEJ KEDIAMAN KELIMA",
      "stop_lat": "3.12670000",
      "stop_lon": "101.65974500"
    },
    {
      "stop_id": "12000800",
      "stop_code": "KL2344",
      "stop_name": "PUSAT SUKAN UM",
      "stop_lat": "3.12938200",
      "stop_lon": "101.66016600"
    },
    {
      "stop_id": "12000801",
      "stop_code": "KL2345",
      "stop_name": "KOLEJ KEDIAMAN KESEPULUH",
      "stop_lat": "3.12986700",
      "stop_lon": "101.65051600"
    },
    {
      "stop_id": "12000802",
      "stop_code": "KL2346",
      "stop_name": "FAKULTI SAINS KOMPUTER",
      "stop_lat": "3.12769200",
      "stop_lon": "101.65026100"
    },
    {
      "stop_id": "12000803",
      "stop_code": "KL2347",
      "stop_name": "FAKULTI PENGAJIAN MELAYU",
      "stop_lat": "3.12619100",
      "stop_lon": "101.65160100"
    },
    {
      "stop_id": "12000804",
      "stop_code": "KL2348",
      "stop_name": "(M1) KOLEJ KEDIAMAN KEEMPAT",
      "stop_lat": "3.12438700",
      "stop_lon": "101.65154300"
    },
    {
      "stop_id": "12000805",
      "stop_code": "PJ824",
      "stop_name": "TROPICANA AVENUE",
      "stop_lat": "3.13706900",
      "stop_lon": "101.59518200"
    },
    {
      "stop_id": "12000806",
      "stop_code": "PJ825",
      "stop_name": "MENARA LIEN HOE",
      "stop_lat": "3.13069300",
      "stop_lon": "101.59471400"
    },
    {
      "stop_id": "12000807",
      "stop_code": "PJ826",
      "stop_name": "DAMANSARA LAGENDA",
      "stop_lat": "3.12466500",
      "stop_lon": "101.59329800"
    },
    {
      "stop_id": "12000808",
      "stop_code": "PJ827",
      "stop_name": "IDAMAN VILLAS",
      "stop_lat": "3.12113400",
      "stop_lon": "101.59208700"
    },
    {
      "stop_id": "12000809",
      "stop_code": "PJ828",
      "stop_name": "TAIPAN 1 (OPP)",
      "stop_lat": "3.11950900",
      "stop_lon": "101.59060900"
    },
    {
      "stop_id": "12000810",
      "stop_code": "PJ829",
      "stop_name": "WINCHESTER",
      "stop_lat": "3.11804000",
      "stop_lon": "101.59106700"
    },
    {
      "stop_id": "12000811",
      "stop_code": "PJ671",
      "stop_name": "LRT LEMBAH SUBANG",
      "stop_lat": "3.11210600",
      "stop_lon": "101.59066100"
    },
    {
      "stop_id": "12000812",
      "stop_code": "PJ672",
      "stop_name": "PUSAT DAGANGAN NZX",
      "stop_lat": "3.11451700",
      "stop_lon": "101.59090100"
    },
    {
      "stop_id": "12000813",
      "stop_code": "PJ673",
      "stop_name": "WHINCHESTER (OPP)",
      "stop_lat": "3.11770900",
      "stop_lon": "101.59083500"
    },
    {
      "stop_id": "12000815",
      "stop_code": "PJ400",
      "stop_name": "ARA PERMATA",
      "stop_lat": "3.11819600",
      "stop_lon": "101.58864000"
    },
    {
      "stop_id": "12000816",
      "stop_code": "PJ830",
      "stop_name": "BALAI POLIS ARA DAMANSARA",
      "stop_lat": "3.11750200",
      "stop_lon": "101.58457400"
    },
    {
      "stop_id": "12000818",
      "stop_code": "PJ19",
      "stop_name": "ARA VISTA",
      "stop_lat": "3.12219500",
      "stop_lon": "101.58184100"
    },
    {
      "stop_id": "12000819",
      "stop_code": "PJ832",
      "stop_name": "ARA PUTRA (OPP)",
      "stop_lat": "3.12349400",
      "stop_lon": "101.58463400"
    },
    {
      "stop_id": "12000820",
      "stop_code": "PJ20",
      "stop_name": "MAISSON CONDO",
      "stop_lat": "3.12173200",
      "stop_lon": "101.58883300"
    },
    {
      "stop_id": "12000821",
      "stop_code": "PJ833",
      "stop_name": "TAIPAN 1",
      "stop_lat": "3.11981600",
      "stop_lon": "101.59060200"
    },
    {
      "stop_id": "12000822",
      "stop_code": "PJ834",
      "stop_name": "DAMANSARA IDAMAN",
      "stop_lat": "3.12202300",
      "stop_lon": "101.59238000"
    },
    {
      "stop_id": "12000823",
      "stop_code": "PJ835",
      "stop_name": "DAMANSARA LAGENDA (OPP)",
      "stop_lat": "3.12466400",
      "stop_lon": "101.59304900"
    },
    {
      "stop_id": "12000825",
      "stop_code": "PJ784",
      "stop_name": "PRIMA DAMANSARA",
      "stop_lat": "3.19823100",
      "stop_lon": "101.59915800"
    },
    {
      "stop_id": "12000826",
      "stop_code": "PJ49",
      "stop_name": "APT LESTARI",
      "stop_lat": "3.19661100",
      "stop_lon": "101.59413200"
    },
    {
      "stop_id": "12000827",
      "stop_code": "PJ52",
      "stop_name": "APT IDAMAN",
      "stop_lat": "3.19065900",
      "stop_lon": "101.59236600"
    },
    {
      "stop_id": "12000828",
      "stop_code": "PJ53",
      "stop_name": "APT IMPIAN",
      "stop_lat": "3.19197500",
      "stop_lon": "101.58851900"
    },
    {
      "stop_id": "12000829",
      "stop_code": "PJ54",
      "stop_name": "APT PERMAI",
      "stop_lat": "3.19424200",
      "stop_lon": "101.58822800"
    },
    {
      "stop_id": "12000830",
      "stop_code": "PJ62",
      "stop_name": "APT LESTARI (OPP)",
      "stop_lat": "3.19720000",
      "stop_lon": "101.59398600"
    },
    {
      "stop_id": "12000833",
      "stop_code": "PJ347",
      "stop_name": "PUSAT PERNIAGAAN SS2 (SELATAN)",
      "stop_lat": "3.11727820",
      "stop_lon": "101.62097770"
    },
    {
      "stop_id": "12000834",
      "stop_code": "PJ803",
      "stop_name": "KUARTERS GURU BANDAR UTAMA",
      "stop_lat": "3.13175000",
      "stop_lon": "101.60689300"
    },
    {
      "stop_id": "12000835",
      "stop_code": "PJ836",
      "stop_name": "WESTPOINT",
      "stop_lat": "3.12940900",
      "stop_lon": "101.60673500"
    },
    {
      "stop_id": "12000836",
      "stop_code": "PJ804",
      "stop_name": "MASJID BANDAR UTAMA",
      "stop_lat": "3.12622200",
      "stop_lon": "101.60629800"
    },
    {
      "stop_id": "12000837",
      "stop_code": "PJ842",
      "stop_name": "PERUMAHAN BU 12/7",
      "stop_lat": "3.12528600",
      "stop_lon": "101.60431600"
    },
    {
      "stop_id": "12000838",
      "stop_code": "PJ805",
      "stop_name": "MUTIARA TROPICANA (1)",
      "stop_lat": "3.12875300",
      "stop_lon": "101.59972100"
    },
    {
      "stop_id": "12000839",
      "stop_code": "PJ515",
      "stop_name": "SMK TROPICANA",
      "stop_lat": "3.12885100",
      "stop_lon": "101.59847700"
    },
    {
      "stop_id": "12000840",
      "stop_code": "PJ516",
      "stop_name": "BAYU PUTERI APARTMENT",
      "stop_lat": "3.13194200",
      "stop_lon": "101.59740200"
    },
    {
      "stop_id": "12000841",
      "stop_code": "PJ522",
      "stop_name": "MERCHANT SQUARE",
      "stop_lat": "3.13255500",
      "stop_lon": "101.60096500"
    },
    {
      "stop_id": "12000842",
      "stop_code": "PJ523",
      "stop_name": "ASRAMA TROPICANA",
      "stop_lat": "3.13189300",
      "stop_lon": "101.60037400"
    },
    {
      "stop_id": "12000843",
      "stop_code": "PJ525",
      "stop_name": "KOMERSIAL MUTIARA TROPICANA",
      "stop_lat": "3.12919600",
      "stop_lon": "101.59906900"
    },
    {
      "stop_id": "12000844",
      "stop_code": "PJ837",
      "stop_name": "(M1) MUTIARA TROPICANA (2)",
      "stop_lat": "3.12935600",
      "stop_lon": "101.60049200"
    },
    {
      "stop_id": "12000845",
      "stop_code": "PJ838",
      "stop_name": "PERUMAHAN BU 11/12",
      "stop_lat": "3.12547600",
      "stop_lon": "101.60426200"
    },
    {
      "stop_id": "12000846",
      "stop_code": "PJ839",
      "stop_name": "MASJID BANDAR UTAMA (OPP)",
      "stop_lat": "3.12645400",
      "stop_lon": "101.60621400"
    },
    {
      "stop_id": "12000847",
      "stop_code": "PJ840",
      "stop_name": "PERUMAHAN BU 11/7",
      "stop_lat": "3.12981800",
      "stop_lon": "101.60647100"
    },
    {
      "stop_id": "12000848",
      "stop_code": "PJ841",
      "stop_name": "PERUMAHAN BU 11/1",
      "stop_lat": "3.13144800",
      "stop_lon": "101.60661200"
    },
    {
      "stop_id": "12000849",
      "stop_code": "KJ486",
      "stop_name": "KLINIK KESIHATAN KAJANG",
      "stop_lat": "2.97798060",
      "stop_lon": "101.82597000"
    },
    {
      "stop_id": "12000850",
      "stop_code": "KJ498",
      "stop_name": "KLINIK KESIHATAN KAJANG",
      "stop_lat": "2.97800000",
      "stop_lon": "101.82563000"
    },
    {
      "stop_id": "12000853",
      "stop_code": "KJ500",
      "stop_name": "KAJANG PRIMA",
      "stop_lat": "2.98365550",
      "stop_lon": "101.81567400"
    },
    {
      "stop_id": "12000854",
      "stop_code": "KJ484",
      "stop_name": "KAJANG PRIMA",
      "stop_lat": "2.98421380",
      "stop_lon": "101.81513000"
    },
    {
      "stop_id": "12000855",
      "stop_code": "KJ483",
      "stop_name": "KOLEJ VOKASIONAL KAJANG",
      "stop_lat": "2.98549720",
      "stop_lon": "101.81312000"
    },
    {
      "stop_id": "12000856",
      "stop_code": "KJ501",
      "stop_name": "KOLEJ VOKASIONAL KAJANG",
      "stop_lat": "2.98582500",
      "stop_lon": "101.81241000"
    },
    {
      "stop_id": "12000857",
      "stop_code": "KJ482",
      "stop_name": "TAMAN RESTU 7",
      "stop_lat": "2.98755550",
      "stop_lon": "101.80795000"
    },
    {
      "stop_id": "12000858",
      "stop_code": "KJ502",
      "stop_name": "TAMAN RESTU 7",
      "stop_lat": "2.98736950",
      "stop_lon": "101.80754000"
    },
    {
      "stop_id": "12000859",
      "stop_code": "KJ28",
      "stop_name": "SUNWAY CHERAS",
      "stop_lat": "3.08207770",
      "stop_lon": "101.76720400"
    },
    {
      "stop_id": "12000860",
      "stop_code": "AJ314",
      "stop_name": "BAYU MAS",
      "stop_lat": "3.09134170",
      "stop_lon": "101.75232000"
    },
    {
      "stop_id": "12000861",
      "stop_code": "AJ443",
      "stop_name": "BAYU MAS",
      "stop_lat": "3.09158900",
      "stop_lon": "101.75208000"
    },
    {
      "stop_id": "12000862",
      "stop_code": "AJ315",
      "stop_name": "FLAT TAMAN BUKIT SEGAR",
      "stop_lat": "3.08980560",
      "stop_lon": "101.75165000"
    },
    {
      "stop_id": "12000863",
      "stop_code": "AJ320",
      "stop_name": "FLAT TAMAN BUKIT SEGAR",
      "stop_lat": "3.08992500",
      "stop_lon": "101.75145000"
    },
    {
      "stop_id": "12000866",
      "stop_code": "KJ16",
      "stop_name": "TAMAN CUEPACS (SELATAN)",
      "stop_lat": "3.08036400",
      "stop_lon": "101.76165000"
    },
    {
      "stop_id": "12000867",
      "stop_code": "KJ15",
      "stop_name": "TAMAN CUEPACS (UTARA)",
      "stop_lat": "3.08017780",
      "stop_lon": "101.76147000"
    },
    {
      "stop_id": "12000868",
      "stop_code": "KJ7",
      "stop_name": "KOMERSIAL CHERAS AWANA",
      "stop_lat": "3.08940840",
      "stop_lon": "101.76108000"
    },
    {
      "stop_id": "12000871",
      "stop_code": "KJ33",
      "stop_name": "SEGAR PERDANA 7 (SELATAN)",
      "stop_lat": "3.08828620",
      "stop_lon": "101.76057400"
    },
    {
      "stop_id": "12000872",
      "stop_code": "KJ34",
      "stop_name": "SEGAR PERDANA 7 (UTARA)",
      "stop_lat": "3.08834170",
      "stop_lon": "101.76045000"
    },
    {
      "stop_id": "12000873",
      "stop_code": "KJ14",
      "stop_name": "TAMAN FERNGROVE (SELATAN)",
      "stop_lat": "3.08265570",
      "stop_lon": "101.76027000"
    },
    {
      "stop_id": "12000874",
      "stop_code": "KJ13",
      "stop_name": "TAMAN FERNGROVE (UTARA)",
      "stop_lat": "3.08236120",
      "stop_lon": "101.76016000"
    },
    {
      "stop_id": "12000875",
      "stop_code": "KJ18",
      "stop_name": "S.K. TAMAN CUEPACS (OPP)",
      "stop_lat": "3.07923600",
      "stop_lon": "101.76012000"
    },
    {
      "stop_id": "12000876",
      "stop_code": "KJ3",
      "stop_name": "TMN BKT SEGAR JAYA 2",
      "stop_lat": "3.09479170",
      "stop_lon": "101.75969000"
    },
    {
      "stop_id": "12000877",
      "stop_code": "KJ35",
      "stop_name": "TMN BKT SEGAR JAYA 2",
      "stop_lat": "3.09485000",
      "stop_lon": "101.75957500"
    },
    {
      "stop_id": "12000878",
      "stop_code": "KJ288",
      "stop_name": "PANGSAPURI LAGENDA MAS",
      "stop_lat": "3.06509450",
      "stop_lon": "101.75933000"
    },
    {
      "stop_id": "12000879",
      "stop_code": "KJ20",
      "stop_name": "S.K. TAMAN CUEPACS",
      "stop_lat": "3.07953050",
      "stop_lon": "101.75892000"
    },
    {
      "stop_id": "12000880",
      "stop_code": "KJ292",
      "stop_name": "SRA TMN TUN PERAK",
      "stop_lat": "3.06201100",
      "stop_lon": "101.75802000"
    },
    {
      "stop_id": "12000882",
      "stop_code": "KJ1",
      "stop_name": "CEMARA APARTMENT",
      "stop_lat": "3.09466670",
      "stop_lon": "101.75759000"
    },
    {
      "stop_id": "12000883",
      "stop_code": "KJ297",
      "stop_name": "PANGSAPURI SRI MESRA",
      "stop_lat": "3.06121400",
      "stop_lon": "101.75753000"
    },
    {
      "stop_id": "12000884",
      "stop_code": "KJ21",
      "stop_name": "MASJID AL-AMIN (OPP)",
      "stop_lat": "3.07922220",
      "stop_lon": "101.75752000"
    },
    {
      "stop_id": "12000885",
      "stop_code": "KJ22",
      "stop_name": "MASJID AL-AMIN",
      "stop_lat": "3.07892780",
      "stop_lon": "101.75730000"
    },
    {
      "stop_id": "12000886",
      "stop_code": "KJ23",
      "stop_name": "MARKAS P.G.A",
      "stop_lat": "3.07775830",
      "stop_lon": "101.75598000"
    },
    {
      "stop_id": "12000887",
      "stop_code": "KJ711",
      "stop_name": "MAKTAB PDRM K.L",
      "stop_lat": "3.07623340",
      "stop_lon": "101.75461600"
    },
    {
      "stop_id": "12000888",
      "stop_code": "AJ313",
      "stop_name": "THE MARK CHERAS (OPP)",
      "stop_lat": "3.09401940",
      "stop_lon": "101.75368000"
    },
    {
      "stop_id": "12000889",
      "stop_code": "AJ321",
      "stop_name": "THE MARK CHERAS",
      "stop_lat": "3.09382220",
      "stop_lon": "101.75334000"
    },
    {
      "stop_id": "12000890",
      "stop_code": "KL758",
      "stop_name": "TAMAN CONNAUGHT (BARAT)",
      "stop_lat": "3.08176950",
      "stop_lon": "101.73603000"
    },
    {
      "stop_id": "12000891",
      "stop_code": "KL752",
      "stop_name": "TAMAN CONNAUGHT (BARAT)",
      "stop_lat": "3.08207230",
      "stop_lon": "101.73595000"
    },
    {
      "stop_id": "12000892",
      "stop_code": "KJ712",
      "stop_name": "CHERAS ZEN PARK",
      "stop_lat": "3.07852770",
      "stop_lon": "101.74995000"
    },
    {
      "stop_id": "12000893",
      "stop_code": "KL133",
      "stop_name": "TAMAN CHERAS UTAMA (UTARA)",
      "stop_lat": "3.10461660",
      "stop_lon": "101.74970000"
    },
    {
      "stop_id": "12000894",
      "stop_code": "AJ316",
      "stop_name": "CENGAL APARTMENT",
      "stop_lat": "3.08863880",
      "stop_lon": "101.74901000"
    },
    {
      "stop_id": "12000895",
      "stop_code": "KL923",
      "stop_name": "KETUMBAR HILL (UTARA)",
      "stop_lat": "3.10425830",
      "stop_lon": "101.74871000"
    },
    {
      "stop_id": "12000896",
      "stop_code": "AJ319",
      "stop_name": "CENGAL APARTMENT",
      "stop_lat": "3.08835840",
      "stop_lon": "101.74799000"
    },
    {
      "stop_id": "12000899",
      "stop_code": "KL755",
      "stop_name": "TAMAN BUKIT HIJAU",
      "stop_lat": "3.08607500",
      "stop_lon": "101.74153000"
    },
    {
      "stop_id": "12000900",
      "stop_code": "KL1723",
      "stop_name": "CHERAS LEISURE MALL",
      "stop_lat": "3.08854720",
      "stop_lon": "101.74103000"
    },
    {
      "stop_id": "12000901",
      "stop_code": "KL132",
      "stop_name": "HOSPITAL PANTAI CHERAS",
      "stop_lat": "3.10188600",
      "stop_lon": "101.74100500"
    },
    {
      "stop_id": "12000902",
      "stop_code": "KL131",
      "stop_name": "CHERAS BUSINESS CENTER (BARAT)",
      "stop_lat": "3.10012770",
      "stop_lon": "101.74052400"
    },
    {
      "stop_id": "12000903",
      "stop_code": "KL754",
      "stop_name": "TAMAN TAYNTON VIEW (TIMUR)",
      "stop_lat": "3.08776950",
      "stop_lon": "101.73924000"
    },
    {
      "stop_id": "12000904",
      "stop_code": "KL753",
      "stop_name": "UCSI UNIVERSITY",
      "stop_lat": "3.08525820",
      "stop_lon": "101.73678000"
    },
    {
      "stop_id": "12000905",
      "stop_code": "KL2222",
      "stop_name": "TAMAN TAYNTON VIEW (BARAT)",
      "stop_lat": "3.08758330",
      "stop_lon": "101.73672500"
    },
    {
      "stop_id": "12000906",
      "stop_code": "KL1784",
      "stop_name": "APARTMENT DESA TUN RAZAK",
      "stop_lat": "3.07910280",
      "stop_lon": "101.71921000"
    },
    {
      "stop_id": "12000907",
      "stop_code": "KL1785",
      "stop_name": "APARTMENT DESA TUN RAZAK",
      "stop_lat": "3.07918620",
      "stop_lon": "101.71878000"
    },
    {
      "stop_id": "12000908",
      "stop_code": "KL751",
      "stop_name": "IKON CONNAUGHT (OPP)",
      "stop_lat": "3.08212780",
      "stop_lon": "101.73231500"
    },
    {
      "stop_id": "12000909",
      "stop_code": "KL759",
      "stop_name": "IKON CONNAUGHT",
      "stop_lat": "3.08185550",
      "stop_lon": "101.73189500"
    },
    {
      "stop_id": "12000910",
      "stop_code": "KL1786",
      "stop_name": "DTR APARTMENT",
      "stop_lat": "3.07825280",
      "stop_lon": "101.71763000"
    },
    {
      "stop_id": "12000911",
      "stop_code": "KL2168",
      "stop_name": "DESA TUN RAZAK (UTARA)",
      "stop_lat": "3.08097220",
      "stop_lon": "101.72257000"
    },
    {
      "stop_id": "12000912",
      "stop_code": "KL2167",
      "stop_name": "DESA TUN RAZAK (UTARA)",
      "stop_lat": "3.08046940",
      "stop_lon": "101.72204600"
    },
    {
      "stop_id": "12000913",
      "stop_code": "KL152",
      "stop_name": "(M1) LRT BANDAR TASIK SELATAN",
      "stop_lat": "3.07610560",
      "stop_lon": "101.71206000"
    },
    {
      "stop_id": "12000914",
      "stop_code": "KL421",
      "stop_name": "KOMERSIAL DAMAI PERDANA",
      "stop_lat": "3.05487230",
      "stop_lon": "101.74326000"
    },
    {
      "stop_id": "12000916",
      "stop_code": "KJ900",
      "stop_name": "APARTMENT SERI BAIDURI",
      "stop_lat": "2.97101600",
      "stop_lon": "101.82695000"
    },
    {
      "stop_id": "12000917",
      "stop_code": "KJ911",
      "stop_name": "MYDIN MALL",
      "stop_lat": "2.97584800",
      "stop_lon": "101.82538600"
    },
    {
      "stop_id": "12000918",
      "stop_code": "KJ491",
      "stop_name": "SURAU AL-HIDAYAH",
      "stop_lat": "2.96859900",
      "stop_lon": "101.82526400"
    },
    {
      "stop_id": "12000919",
      "stop_code": "KJ496",
      "stop_name": "SIMPANG JLN 3/20",
      "stop_lat": "2.96884700",
      "stop_lon": "101.82515000"
    },
    {
      "stop_id": "12000920",
      "stop_code": "KJ909",
      "stop_name": "PANGSAPURI VISTA PERDANA",
      "stop_lat": "2.97013700",
      "stop_lon": "101.82468400"
    },
    {
      "stop_id": "12000921",
      "stop_code": "KJ910",
      "stop_name": "SYMPHONY RESIDENCE",
      "stop_lat": "2.97271900",
      "stop_lon": "101.82461500"
    },
    {
      "stop_id": "12000922",
      "stop_code": "KJ492",
      "stop_name": "PERUMAHAN SEK. 3 (BARAT)",
      "stop_lat": "2.96656800",
      "stop_lon": "101.82249500"
    },
    {
      "stop_id": "12000923",
      "stop_code": "KJ495",
      "stop_name": "PERUMAHAN SEK. 3 (TIMUR)",
      "stop_lat": "2.96667600",
      "stop_lon": "101.82233000"
    },
    {
      "stop_id": "12000924",
      "stop_code": "KJ494",
      "stop_name": "PERINDUSTRIAN SEK. 4 (SELATAN)",
      "stop_lat": "2.96296600",
      "stop_lon": "101.82116000"
    },
    {
      "stop_id": "12000925",
      "stop_code": "KJ901",
      "stop_name": "PERINDUSTRIAN SEK. 4 (BARAT)",
      "stop_lat": "2.96104400",
      "stop_lon": "101.82020000"
    },
    {
      "stop_id": "12000926",
      "stop_code": "KJ902",
      "stop_name": "HILL PARK 1",
      "stop_lat": "2.95716400",
      "stop_lon": "101.81906000"
    },
    {
      "stop_id": "12000927",
      "stop_code": "KJ908",
      "stop_name": "PERINDUSTRIAN SEK. 4",
      "stop_lat": "2.96270000",
      "stop_lon": "101.81835000"
    },
    {
      "stop_id": "12000928",
      "stop_code": "KJ903",
      "stop_name": "HILLVIEW RESIDENCE",
      "stop_lat": "2.95612300",
      "stop_lon": "101.81670000"
    },
    {
      "stop_id": "12000929",
      "stop_code": "KJ904",
      "stop_name": "FLAT BLOK M",
      "stop_lat": "2.95645900",
      "stop_lon": "101.81545000"
    },
    {
      "stop_id": "12000930",
      "stop_code": "KJ907",
      "stop_name": "PERINDUSTRIAN SEK. 4 (TIMUR)",
      "stop_lat": "2.96243900",
      "stop_lon": "101.81467400"
    },
    {
      "stop_id": "12000931",
      "stop_code": "KJ894",
      "stop_name": "KOMERSIAL TAMAN KAJANG PRIMA",
      "stop_lat": "2.98329500",
      "stop_lon": "101.81447600"
    },
    {
      "stop_id": "12000932",
      "stop_code": "KJ895",
      "stop_name": "SEK. KEB. TAMAN JASMIN",
      "stop_lat": "2.98293600",
      "stop_lon": "101.81375000"
    },
    {
      "stop_id": "12000933",
      "stop_code": "KJ896",
      "stop_name": "SEK. KEB. TAMAN JASMIN GATE 2",
      "stop_lat": "2.98179400",
      "stop_lon": "101.81351000"
    },
    {
      "stop_id": "12000934",
      "stop_code": "KJ905",
      "stop_name": "(M1) TAMAN HARMONI",
      "stop_lat": "2.95752700",
      "stop_lon": "101.81261400"
    },
    {
      "stop_id": "12000935",
      "stop_code": "KJ831",
      "stop_name": "MUTIARA AVENUE",
      "stop_lat": "3.01139700",
      "stop_lon": "101.81179000"
    },
    {
      "stop_id": "12000936",
      "stop_code": "KJ832",
      "stop_name": "FLAT SRI SAUJANA",
      "stop_lat": "3.01112000",
      "stop_lon": "101.81178000"
    },
    {
      "stop_id": "12000937",
      "stop_code": "KJ897",
      "stop_name": "PADANG BOLA TAMAN JASMIN",
      "stop_lat": "2.98158200",
      "stop_lon": "101.81138000"
    },
    {
      "stop_id": "12000938",
      "stop_code": "KJ759",
      "stop_name": "(M1) PALM WALK 3",
      "stop_lat": "3.05313500",
      "stop_lon": "101.81066000"
    },
    {
      "stop_id": "12000940",
      "stop_code": "KJ854",
      "stop_name": "KOMPLEKS PENJARA KAJANG",
      "stop_lat": "3.00106100",
      "stop_lon": "101.81005000"
    },
    {
      "stop_id": "12000941",
      "stop_code": "KJ760",
      "stop_name": "PALM WALK 1 &2 (OPP)",
      "stop_lat": "3.04765100",
      "stop_lon": "101.80849500"
    },
    {
      "stop_id": "12000942",
      "stop_code": "KJ898",
      "stop_name": "SIMPANG JASMIN 20",
      "stop_lat": "2.98141800",
      "stop_lon": "101.80819000"
    },
    {
      "stop_id": "12000943",
      "stop_code": "KJ833",
      "stop_name": "PERUMAHAN PRIMA SAUJANA",
      "stop_lat": "3.01030300",
      "stop_lon": "101.80798000"
    },
    {
      "stop_id": "12000944",
      "stop_code": "KJ758",
      "stop_name": "TAMAN IKHLAS",
      "stop_lat": "3.05537700",
      "stop_lon": "101.80781600"
    },
    {
      "stop_id": "12000945",
      "stop_code": "KJ853",
      "stop_name": "DERET KEDAI TAMAN INDAH",
      "stop_lat": "2.99794400",
      "stop_lon": "101.80778500"
    },
    {
      "stop_id": "12000946",
      "stop_code": "KJ852",
      "stop_name": "DERET KEDAI TAMAN KAJANG BARU",
      "stop_lat": "2.99646400",
      "stop_lon": "101.80651000"
    },
    {
      "stop_id": "12000947",
      "stop_code": "KJ761",
      "stop_name": "GREEN ACRE CONDO",
      "stop_lat": "3.04600200",
      "stop_lon": "101.80645000"
    },
    {
      "stop_id": "12000948",
      "stop_code": "KJ834",
      "stop_name": "KOMERSIAL PRIMA SAUJANA",
      "stop_lat": "3.00868500",
      "stop_lon": "101.80607000"
    },
    {
      "stop_id": "12000949",
      "stop_code": "KJ851",
      "stop_name": "APARTMENT INDAH",
      "stop_lat": "2.99740100",
      "stop_lon": "101.80601000"
    },
    {
      "stop_id": "12000950",
      "stop_code": "KJ846",
      "stop_name": "TAMAN KAJANG BARU",
      "stop_lat": "2.99761200",
      "stop_lon": "101.80584000"
    },
    {
      "stop_id": "12000951",
      "stop_code": "KJ850",
      "stop_name": "TAMAN BERLIAN (2)",
      "stop_lat": "3.00024900",
      "stop_lon": "101.80542000"
    },
    {
      "stop_id": "12000952",
      "stop_code": "KJ830",
      "stop_name": "TAMAN PUNCAK SAUJANA",
      "stop_lat": "3.01416100",
      "stop_lon": "101.80540000"
    },
    {
      "stop_id": "12000953",
      "stop_code": "KJ847",
      "stop_name": "TAMAN BERLIAN (1)",
      "stop_lat": "3.00044700",
      "stop_lon": "101.80527500"
    },
    {
      "stop_id": "12000954",
      "stop_code": "KJ899",
      "stop_name": "FLAT BUKIT MEWAH",
      "stop_lat": "2.98383200",
      "stop_lon": "101.80489000"
    },
    {
      "stop_id": "12000955",
      "stop_code": "KJ866",
      "stop_name": "TAMAN PERMAI",
      "stop_lat": "2.98646500",
      "stop_lon": "101.80447400"
    },
    {
      "stop_id": "12000957",
      "stop_code": "KJ829",
      "stop_name": "TADIKA KEMAS DESA SRI JENARIS",
      "stop_lat": "3.01248600",
      "stop_lon": "101.80416000"
    },
    {
      "stop_id": "12000958",
      "stop_code": "KJ855",
      "stop_name": "TAMAN SENTOSA",
      "stop_lat": "2.99260600",
      "stop_lon": "101.80414000"
    },
    {
      "stop_id": "12000959",
      "stop_code": "KJ503",
      "stop_name": "TAMAN ZAMRUD",
      "stop_lat": "2.98804800",
      "stop_lon": "101.80385000"
    },
    {
      "stop_id": "12000960",
      "stop_code": "KJ757",
      "stop_name": "GARDEN PARK CONDO",
      "stop_lat": "3.05472300",
      "stop_lon": "101.80374000"
    },
    {
      "stop_id": "12000961",
      "stop_code": "KJ849",
      "stop_name": "TAMAN MEGAH",
      "stop_lat": "3.00130300",
      "stop_lon": "101.80372000"
    },
    {
      "stop_id": "12000962",
      "stop_code": "KJ481",
      "stop_name": "KAWASAN PERNIAGAAN NILAM",
      "stop_lat": "2.98835180",
      "stop_lon": "101.80347400"
    },
    {
      "stop_id": "12000963",
      "stop_code": "KJ194",
      "stop_name": "KOLEJ KOMUNITI HULU LANGAT",
      "stop_lat": "3.01031800",
      "stop_lon": "101.80341000"
    },
    {
      "stop_id": "12000964",
      "stop_code": "KJ865",
      "stop_name": "FLAT TAMAN BUKIT MUTIARA",
      "stop_lat": "2.98521800",
      "stop_lon": "101.80304000"
    },
    {
      "stop_id": "12000965",
      "stop_code": "KJ861",
      "stop_name": "DERET KEDAI BUKIT MEWAH 47",
      "stop_lat": "2.98336800",
      "stop_lon": "101.80259000"
    },
    {
      "stop_id": "12000966",
      "stop_code": "KJ864",
      "stop_name": "TAMAN BUKIT MUTIARA",
      "stop_lat": "2.98354700",
      "stop_lon": "101.80241400"
    },
    {
      "stop_id": "12000967",
      "stop_code": "KJ856",
      "stop_name": "DERET KEDAI TMN BUKIT CANTIK",
      "stop_lat": "2.99221300",
      "stop_lon": "101.80237000"
    },
    {
      "stop_id": "12000969",
      "stop_code": "KJ848",
      "stop_name": "(M1) DESA MUTIARA APARTMENT",
      "stop_lat": "3.00151200",
      "stop_lon": "101.80224000"
    },
    {
      "stop_id": "12000971",
      "stop_code": "KJ196",
      "stop_name": "DESA SRI JENARIS",
      "stop_lat": "3.01100000",
      "stop_lon": "101.80164000"
    },
    {
      "stop_id": "12000972",
      "stop_code": "KJ438",
      "stop_name": "SG. LONG CLUB HOUSE",
      "stop_lat": "3.04170700",
      "stop_lon": "101.80142000"
    },
    {
      "stop_id": "12000973",
      "stop_code": "KJ197",
      "stop_name": "DESA SRI JENARIS",
      "stop_lat": "3.01075900",
      "stop_lon": "101.80132000"
    },
    {
      "stop_id": "12000974",
      "stop_code": "KJ756",
      "stop_name": "SMK. BANDAR SG. LONG",
      "stop_lat": "3.05202900",
      "stop_lon": "101.80128500"
    },
    {
      "stop_id": "12000975",
      "stop_code": "KJ804",
      "stop_name": "TAMAN BUKIT MEWAH FASA 8A",
      "stop_lat": "2.97474400",
      "stop_lon": "101.80113000"
    },
    {
      "stop_id": "12000976",
      "stop_code": "KJ863",
      "stop_name": "(M1) TAMAN BUKIT MEWAH FASA 7",
      "stop_lat": "2.97935700",
      "stop_lon": "101.80080000"
    },
    {
      "stop_id": "12000977",
      "stop_code": "KJ803",
      "stop_name": "APARTMENT SUTERA",
      "stop_lat": "2.97337100",
      "stop_lon": "101.80078000"
    },
    {
      "stop_id": "12000978",
      "stop_code": "KJ857",
      "stop_name": "KUARTERS JKR SG. JELOK",
      "stop_lat": "2.99195300",
      "stop_lon": "101.80047000"
    },
    {
      "stop_id": "12000980",
      "stop_code": "KJ504",
      "stop_name": "TAMAN LEMBAH MEWAH",
      "stop_lat": "2.99002400",
      "stop_lon": "101.80022400"
    },
    {
      "stop_id": "12000981",
      "stop_code": "KJ805",
      "stop_name": "KOMERSIAL TAMAN BUKIT MEWAH",
      "stop_lat": "2.97476100",
      "stop_lon": "101.79954000"
    },
    {
      "stop_id": "12000982",
      "stop_code": "KJ480",
      "stop_name": "PERSIMPANGAN SG. JELOK",
      "stop_lat": "2.99107300",
      "stop_lon": "101.79942000"
    },
    {
      "stop_id": "12000983",
      "stop_code": "KJ802",
      "stop_name": "APARTMENT CEMARA",
      "stop_lat": "2.97236000",
      "stop_lon": "101.79928000"
    },
    {
      "stop_id": "12000984",
      "stop_code": "KJ403",
      "stop_name": "BDR SG. LONG 7 (TIMUR)",
      "stop_lat": "3.04937500",
      "stop_lon": "101.79891000"
    },
    {
      "stop_id": "12000985",
      "stop_code": "KJ801",
      "stop_name": "PERUMAHAN SEKSYEN 3",
      "stop_lat": "2.97109700",
      "stop_lon": "101.79851500"
    },
    {
      "stop_id": "12000986",
      "stop_code": "KJ806",
      "stop_name": "TAMAN KAJANG UTAMA",
      "stop_lat": "2.97501600",
      "stop_lon": "101.79796000"
    },
    {
      "stop_id": "12000987",
      "stop_code": "KJ795",
      "stop_name": "KUARTERS GURU  KAJANG UTAMA",
      "stop_lat": "2.97361900",
      "stop_lon": "101.79670000"
    },
    {
      "stop_id": "12000988",
      "stop_code": "KJ835",
      "stop_name": "SIMPANG JLN. MELATI 2",
      "stop_lat": "3.00972100",
      "stop_lon": "101.79656000"
    },
    {
      "stop_id": "12000989",
      "stop_code": "KJ479",
      "stop_name": "SEK. MEN. TINGGI KAJANG",
      "stop_lat": "2.99195770",
      "stop_lon": "101.79521000"
    },
    {
      "stop_id": "12000990",
      "stop_code": "KJ836",
      "stop_name": "SURAU AL HIDAYAH (OPP)",
      "stop_lat": "3.00908500",
      "stop_lon": "101.79514000"
    },
    {
      "stop_id": "12000991",
      "stop_code": "KJ505",
      "stop_name": "METRO POINT KAJANG",
      "stop_lat": "2.99178500",
      "stop_lon": "101.79503000"
    },
    {
      "stop_id": "12000993",
      "stop_code": "KJ361",
      "stop_name": "BDR SG. LONG 7 (BARAT)",
      "stop_lat": "3.04601400",
      "stop_lon": "101.79483000"
    },
    {
      "stop_id": "12000994",
      "stop_code": "KJ828",
      "stop_name": "SURAU AL HIDAYAH SG. KANTAN",
      "stop_lat": "3.00905600",
      "stop_lon": "101.79475000"
    },
    {
      "stop_id": "12000995",
      "stop_code": "KJ676",
      "stop_name": "TAMAN KAJANG SENTRAL",
      "stop_lat": "2.97707100",
      "stop_lon": "101.79468000"
    },
    {
      "stop_id": "12000996",
      "stop_code": "KJ796",
      "stop_name": "SMK KAJANG UTAMA",
      "stop_lat": "2.97403600",
      "stop_lon": "101.79466000"
    },
    {
      "stop_id": "12000997",
      "stop_code": "KJ677",
      "stop_name": "SEKSYEN 1 TAMAN KAJANG UTAMA",
      "stop_lat": "2.97676600",
      "stop_lon": "101.79449000"
    },
    {
      "stop_id": "12000998",
      "stop_code": "KJ477",
      "stop_name": "HAB UTAR",
      "stop_lat": "3.04080200",
      "stop_lon": "101.79430400"
    },
    {
      "stop_id": "12000999",
      "stop_code": "KJ564",
      "stop_name": "PERUMAHAN SEK. 6 (UTARA)",
      "stop_lat": "3.05453800",
      "stop_lon": "101.79388000"
    },
    {
      "stop_id": "12001000",
      "stop_code": "KJ871",
      "stop_name": "(M1) PERUMAHAN SEK. 8",
      "stop_lat": "3.05704700",
      "stop_lon": "101.79388000"
    },
    {
      "stop_id": "12001001",
      "stop_code": "KJ859",
      "stop_name": "SENTOSA AVENUE",
      "stop_lat": "2.99468500",
      "stop_lon": "101.79381600"
    },
    {
      "stop_id": "12001003",
      "stop_code": "KJ827",
      "stop_name": "SIMPANG JLN. MELOR 6",
      "stop_lat": "3.00856500",
      "stop_lon": "101.79364000"
    },
    {
      "stop_id": "12001005",
      "stop_code": "KJ797",
      "stop_name": "FLAT KAJANG UTAMA",
      "stop_lat": "2.97085800",
      "stop_lon": "101.79333000"
    },
    {
      "stop_id": "12001006",
      "stop_code": "KJ837",
      "stop_name": "SPG JLN. MELATI 1",
      "stop_lat": "3.00822200",
      "stop_lon": "101.79333000"
    },
    {
      "stop_id": "12001007",
      "stop_code": "KJ473",
      "stop_name": "HOSPITAL KAJANG",
      "stop_lat": "2.99259000",
      "stop_lon": "101.79327000"
    },
    {
      "stop_id": "12001009",
      "stop_code": "KJ506",
      "stop_name": "PEJABAT AIR SELANGOR",
      "stop_lat": "2.99247700",
      "stop_lon": "101.79304000"
    },
    {
      "stop_id": "12001011",
      "stop_code": "KJ768",
      "stop_name": "PERUMAHAN SEK. 6 (SELATAN)",
      "stop_lat": "3.05169800",
      "stop_lon": "101.79281600"
    },
    {
      "stop_id": "12001012",
      "stop_code": "KJ798",
      "stop_name": "(M1) FLAT CITRA",
      "stop_lat": "2.96874000",
      "stop_lon": "101.79245000"
    },
    {
      "stop_id": "12001013",
      "stop_code": "KJ838",
      "stop_name": "LOT 1087",
      "stop_lat": "3.00591500",
      "stop_lon": "101.79223000"
    },
    {
      "stop_id": "12001014",
      "stop_code": "KJ826",
      "stop_name": "LOT 3082",
      "stop_lat": "3.00653900",
      "stop_lon": "101.79195000"
    },
    {
      "stop_id": "12001015",
      "stop_code": "KJ799",
      "stop_name": "APARTMENT SURIA",
      "stop_lat": "2.97002700",
      "stop_lon": "101.79176000"
    },
    {
      "stop_id": "12001016",
      "stop_code": "KJ839",
      "stop_name": "SIMPANG JLN. GHAZALY (OPP)",
      "stop_lat": "3.00410900",
      "stop_lon": "101.79128000"
    },
    {
      "stop_id": "12001017",
      "stop_code": "KJ825",
      "stop_name": "SIMPANG JLN. GHAZALY",
      "stop_lat": "3.00425400",
      "stop_lon": "101.79124500"
    },
    {
      "stop_id": "12001021",
      "stop_code": "KJ472",
      "stop_name": "KOMERSIAL BANDAR KAJANG",
      "stop_lat": "2.99314100",
      "stop_lon": "101.79018400"
    },
    {
      "stop_id": "12001023",
      "stop_code": "KJ858",
      "stop_name": "METRO AVENUE (OPP)",
      "stop_lat": "2.99684900",
      "stop_lon": "101.79015000"
    },
    {
      "stop_id": "12001024",
      "stop_code": "KJ507",
      "stop_name": "KOMERSIAL BANDAR KAJANG",
      "stop_lat": "2.99299000",
      "stop_lon": "101.79014000"
    },
    {
      "stop_id": "12001025",
      "stop_code": "KJ563",
      "stop_name": "KOMERSIAL SEK. 9 (SELATAN)",
      "stop_lat": "3.05039600",
      "stop_lon": "101.79009000"
    },
    {
      "stop_id": "12001026",
      "stop_code": "KJ207",
      "stop_name": "REKO SENTRAL (OPP)",
      "stop_lat": "2.96808700",
      "stop_lon": "101.79005000"
    },
    {
      "stop_id": "12001027",
      "stop_code": "KJ824",
      "stop_name": "SRA. SG. KANTAN (OPP)",
      "stop_lat": "3.00219700",
      "stop_lon": "101.78997000"
    },
    {
      "stop_id": "12001028",
      "stop_code": "KJ205",
      "stop_name": "TAMAN SRI LANGAT 2 (OPP)",
      "stop_lat": "2.97481400",
      "stop_lon": "101.78990000"
    },
    {
      "stop_id": "12001029",
      "stop_code": "KJ840",
      "stop_name": "SRA. SG. KANTAN",
      "stop_lat": "3.00193000",
      "stop_lon": "101.78989000"
    },
    {
      "stop_id": "12001030",
      "stop_code": "KJ464",
      "stop_name": "REKO SENTRAL",
      "stop_lat": "2.96795200",
      "stop_lon": "101.78986000"
    },
    {
      "stop_id": "12001031",
      "stop_code": "KJ512",
      "stop_name": "TAMAN REKO JAYA (OPP)",
      "stop_lat": "2.97905300",
      "stop_lon": "101.78985000"
    },
    {
      "stop_id": "12001032",
      "stop_code": "KJ206",
      "stop_name": "SAVILLE KAJANG (OPP)",
      "stop_lat": "2.97180000",
      "stop_lon": "101.78982000"
    },
    {
      "stop_id": "12001033",
      "stop_code": "KJ468",
      "stop_name": "TAMAN HIJAU",
      "stop_lat": "2.98075500",
      "stop_lon": "101.78972000"
    },
    {
      "stop_id": "12001034",
      "stop_code": "KJ467",
      "stop_name": "TAMAN SRI REKO",
      "stop_lat": "2.97907100",
      "stop_lon": "101.78970000"
    },
    {
      "stop_id": "12001035",
      "stop_code": "KJ466",
      "stop_name": "TAMAN SRI LANGAT 2",
      "stop_lat": "2.97441220",
      "stop_lon": "101.78965000"
    },
    {
      "stop_id": "12001036",
      "stop_code": "KJ465",
      "stop_name": "SAVILLE KAJANG",
      "stop_lat": "2.97218700",
      "stop_lon": "101.78963500"
    },
    {
      "stop_id": "12001037",
      "stop_code": "KJ329",
      "stop_name": "SHELL JLN. SG. LONG",
      "stop_lat": "3.04179700",
      "stop_lon": "101.78952000"
    },
    {
      "stop_id": "12001038",
      "stop_code": "KJ560",
      "stop_name": "SHELL JLN. SG. LONG (OPP)",
      "stop_lat": "3.04148600",
      "stop_lon": "101.78944000"
    },
    {
      "stop_id": "12001040",
      "stop_code": "KJ450",
      "stop_name": "REKO SENTRAL",
      "stop_lat": "2.96573800",
      "stop_lon": "101.78933000"
    },
    {
      "stop_id": "12001042",
      "stop_code": "KJ842",
      "stop_name": "MENARA MPKj",
      "stop_lat": "2.99548900",
      "stop_lon": "101.78908500"
    },
    {
      "stop_id": "12001044",
      "stop_code": "KJ841",
      "stop_name": "KG. SG. KANTAN",
      "stop_lat": "3.00003000",
      "stop_lon": "101.78846000"
    },
    {
      "stop_id": "12001045",
      "stop_code": "KJ823",
      "stop_name": "MASJID JAMEK KAJANG (OPP)",
      "stop_lat": "2.99837500",
      "stop_lon": "101.78790000"
    },
    {
      "stop_id": "12001046",
      "stop_code": "KJ508",
      "stop_name": "BANDAR KAJANG",
      "stop_lat": "2.99191200",
      "stop_lon": "101.78786500"
    },
    {
      "stop_id": "12001048",
      "stop_code": "KJ643",
      "stop_name": "KAJANG PLAZA",
      "stop_lat": "2.99550600",
      "stop_lon": "101.78776600"
    },
    {
      "stop_id": "12001051",
      "stop_code": "KJ244",
      "stop_name": "MAHKOTA WALK",
      "stop_lat": "3.05123000",
      "stop_lon": "101.78729000"
    },
    {
      "stop_id": "12001052",
      "stop_code": "KJ807",
      "stop_name": "TAMAN BANGI",
      "stop_lat": "2.97571000",
      "stop_lon": "101.78693400"
    },
    {
      "stop_id": "12001054",
      "stop_code": "KJ567",
      "stop_name": "AEON  MAHKOTA CHERAS",
      "stop_lat": "3.05447200",
      "stop_lon": "101.78633000"
    },
    {
      "stop_id": "12001057",
      "stop_code": "KJ299",
      "stop_name": "TAMAN RAKAN (TIMUR)",
      "stop_lat": "3.03549900",
      "stop_lon": "101.78258000"
    },
    {
      "stop_id": "12001058",
      "stop_code": "KJ57",
      "stop_name": "SEK. KEB. BUKIT RAYA",
      "stop_lat": "3.07230900",
      "stop_lon": "101.78253000"
    },
    {
      "stop_id": "12001060",
      "stop_code": "KJ331",
      "stop_name": "TAMAN RAKAN (TIMUR)",
      "stop_lat": "3.03553100",
      "stop_lon": "101.78209000"
    },
    {
      "stop_id": "12001061",
      "stop_code": "KJ153",
      "stop_name": "MAHKOTA RESIDENCE",
      "stop_lat": "3.05170800",
      "stop_lon": "101.78206000"
    },
    {
      "stop_id": "12001062",
      "stop_code": "KJ568",
      "stop_name": "MAHKOTA RESIDENCE",
      "stop_lat": "3.05140200",
      "stop_lon": "101.78205000"
    },
    {
      "stop_id": "12001065",
      "stop_code": "KJ300",
      "stop_name": "TAMAN RAKAN (BARAT)",
      "stop_lat": "3.03469500",
      "stop_lon": "101.78073000"
    },
    {
      "stop_id": "12001066",
      "stop_code": "KJ330",
      "stop_name": "TAMAN RAKAN (BARAT)",
      "stop_lat": "3.03486200",
      "stop_lon": "101.78055000"
    },
    {
      "stop_id": "12001067",
      "stop_code": "KJ820",
      "stop_name": "FLAT RPR KEMACAHAYA 5",
      "stop_lat": "3.07619000",
      "stop_lon": "101.78033000"
    },
    {
      "stop_id": "12001069",
      "stop_code": "KJ56",
      "stop_name": "KG. BKT. RAYA",
      "stop_lat": "3.07056300",
      "stop_lon": "101.78005000"
    },
    {
      "stop_id": "12001071",
      "stop_code": "KJ817",
      "stop_name": "KOMERSIAL SEKSYEN 4 TAMBAHAN (OPP)",
      "stop_lat": "2.96575400",
      "stop_lon": "101.77936600"
    },
    {
      "stop_id": "12001072",
      "stop_code": "KJ808",
      "stop_name": "KOMERSIAL SEKSYEN 4 TAMBAHAN",
      "stop_lat": "2.96548900",
      "stop_lon": "101.77924000"
    },
    {
      "stop_id": "12001073",
      "stop_code": "KJ821",
      "stop_name": "ASIA METROPOLITAN UNIVERSITY",
      "stop_lat": "3.07731800",
      "stop_lon": "101.77884000"
    },
    {
      "stop_id": "12001075",
      "stop_code": "KJ55",
      "stop_name": "TAMAN SRI MELAKA BATU 9",
      "stop_lat": "3.06972400",
      "stop_lon": "101.77691000"
    },
    {
      "stop_id": "12001076",
      "stop_code": "KJ179",
      "stop_name": "TMN DELIMA",
      "stop_lat": "3.01699640",
      "stop_lon": "101.77663400"
    },
    {
      "stop_id": "12001078",
      "stop_code": "KJ912",
      "stop_name": "SURIA RESIDENCE",
      "stop_lat": "3.07810200",
      "stop_lon": "101.77643000"
    },
    {
      "stop_id": "12001079",
      "stop_code": "KJ777",
      "stop_name": "PREMIS LOT 4711",
      "stop_lat": "3.01883600",
      "stop_lon": "101.77634400"
    },
    {
      "stop_id": "12001080",
      "stop_code": "KJ809",
      "stop_name": "SEKSYEN 4 TAMBAHAN",
      "stop_lat": "2.96537800",
      "stop_lon": "101.77625000"
    },
    {
      "stop_id": "12001081",
      "stop_code": "KJ816",
      "stop_name": "SEKSYEN 4 TAMBAHAN (OPP)",
      "stop_lat": "2.96565700",
      "stop_lon": "101.77620000"
    },
    {
      "stop_id": "12001082",
      "stop_code": "KJ180",
      "stop_name": "MASJID KG SG SEKAMAT",
      "stop_lat": "3.02115270",
      "stop_lon": "101.77559000"
    },
    {
      "stop_id": "12001083",
      "stop_code": "KJ187",
      "stop_name": "MASJID KG SG SEKAMAT",
      "stop_lat": "3.02192430",
      "stop_lon": "101.77556600"
    },
    {
      "stop_id": "12001084",
      "stop_code": "KJ303",
      "stop_name": "INSTITUT PENGURUSAN VETERINAR",
      "stop_lat": "3.03547700",
      "stop_lon": "101.77551000"
    },
    {
      "stop_id": "12001085",
      "stop_code": "KJ304",
      "stop_name": "INSTITUT PENGURUSAN VETERINAR",
      "stop_lat": "3.03604700",
      "stop_lon": "101.77524600"
    },
    {
      "stop_id": "12001086",
      "stop_code": "KJ54",
      "stop_name": "KLINIK KESIHATAN BATU 9",
      "stop_lat": "3.06929200",
      "stop_lon": "101.77506000"
    },
    {
      "stop_id": "12001087",
      "stop_code": "KJ43",
      "stop_name": "MASJID BESAR BT. 9",
      "stop_lat": "3.06206400",
      "stop_lon": "101.77500000"
    },
    {
      "stop_id": "12001088",
      "stop_code": "KJ913",
      "stop_name": "VENICE HILL TOWER 10",
      "stop_lat": "3.07826100",
      "stop_lon": "101.77478000"
    },
    {
      "stop_id": "12001089",
      "stop_code": "KJ186",
      "stop_name": "PREMIS LOT 4291",
      "stop_lat": "3.02464400",
      "stop_lon": "101.77446000"
    },
    {
      "stop_id": "12001090",
      "stop_code": "KJ764",
      "stop_name": "MRT BANDAR TUN HUSSEIN ONN PINTU B",
      "stop_lat": "3.04849100",
      "stop_lon": "101.77434000"
    },
    {
      "stop_id": "12001091",
      "stop_code": "KJ181",
      "stop_name": "PREMIS LOT 4291 (OPP)",
      "stop_lat": "3.02442460",
      "stop_lon": "101.77431000"
    },
    {
      "stop_id": "12001092",
      "stop_code": "KJ185",
      "stop_name": "SIMPANG JLN. SARJAN MAT",
      "stop_lat": "3.02579900",
      "stop_lon": "101.77391000"
    },
    {
      "stop_id": "12001093",
      "stop_code": "KJ778",
      "stop_name": "KG. SG. BALAK (1)",
      "stop_lat": "3.01551100",
      "stop_lon": "101.77334600"
    },
    {
      "stop_id": "12001094",
      "stop_code": "KJ787",
      "stop_name": "KG. SG. BALAK (2)",
      "stop_lat": "3.01557100",
      "stop_lon": "101.77321000"
    },
    {
      "stop_id": "12001095",
      "stop_code": "KJ436",
      "stop_name": "PUSAT KOMERSIAL SEK 7 (UTARA)",
      "stop_lat": "2.96878900",
      "stop_lon": "101.77295000"
    },
    {
      "stop_id": "12001097",
      "stop_code": "KJ755",
      "stop_name": "(M1) MRT BATU 11 CHERAS PINTU A",
      "stop_lat": "3.04094900",
      "stop_lon": "101.77288000"
    },
    {
      "stop_id": "12001098",
      "stop_code": "KJ439",
      "stop_name": "PUSAT KOMERSIAL SEK 7 (SELATAN)",
      "stop_lat": "2.97013400",
      "stop_lon": "101.77284000"
    },
    {
      "stop_id": "12001099",
      "stop_code": "KJ882",
      "stop_name": "(M1) SEK. KEB. TAMAN PUTERI",
      "stop_lat": "3.07914000",
      "stop_lon": "101.77263000"
    },
    {
      "stop_id": "12001100",
      "stop_code": "KJ53",
      "stop_name": "PEJABAT POS (CAW. SERAHAN) BATU 9",
      "stop_lat": "3.06859500",
      "stop_lon": "101.77221000"
    },
    {
      "stop_id": "12001101",
      "stop_code": "KJ722",
      "stop_name": "PERSIMPANGAN SG. LONG",
      "stop_lat": "3.03620000",
      "stop_lon": "101.77190000"
    },
    {
      "stop_id": "12001102",
      "stop_code": "KJ786",
      "stop_name": "SRA. KG. SG. BALAK",
      "stop_lat": "3.01490700",
      "stop_lon": "101.77157600"
    },
    {
      "stop_id": "12001104",
      "stop_code": "KJ44",
      "stop_name": "FLAT TAMAN KOTA CHERAS",
      "stop_lat": "3.06018400",
      "stop_lon": "101.77106000"
    },
    {
      "stop_id": "12001105",
      "stop_code": "KJ45",
      "stop_name": "TAMAN KOTA CHERAS FASA 1",
      "stop_lat": "3.06042980",
      "stop_lon": "101.77093500"
    },
    {
      "stop_id": "12001106",
      "stop_code": "KJ810",
      "stop_name": "SURAU AL-UKHUWAH SEKSYEN 8 (BARAT)",
      "stop_lat": "2.97143700",
      "stop_lon": "101.77093000"
    },
    {
      "stop_id": "12001107",
      "stop_code": "KJ779",
      "stop_name": "KEDAI BASIKAL KG SG. BALAK",
      "stop_lat": "3.01448800",
      "stop_lon": "101.77089000"
    },
    {
      "stop_id": "12001108",
      "stop_code": "KJ891",
      "stop_name": "SURAU AL-UKHUWAH SEKSYEN 8 (TIMUR)",
      "stop_lat": "2.97158400",
      "stop_lon": "101.77082000"
    },
    {
      "stop_id": "12001109",
      "stop_code": "KJ914",
      "stop_name": "TAMAN MUDUN",
      "stop_lat": "3.08134000",
      "stop_lon": "101.77055000"
    },
    {
      "stop_id": "12001110",
      "stop_code": "KJ40",
      "stop_name": "BALAI POLIS BATU 9 CHERAS",
      "stop_lat": "3.06910100",
      "stop_lon": "101.77026000"
    },
    {
      "stop_id": "12001111",
      "stop_code": "KJ273",
      "stop_name": "SIMPANG MEGAH 12A",
      "stop_lat": "3.05652700",
      "stop_lon": "101.76987000"
    },
    {
      "stop_id": "12001112",
      "stop_code": "KJ767",
      "stop_name": "SIMPANG SRI CHERAS. TAMAN MURNI",
      "stop_lat": "3.05934400",
      "stop_lon": "101.76965000"
    },
    {
      "stop_id": "12001113",
      "stop_code": "KJ341",
      "stop_name": "PLAZA KASTURI (OPP)",
      "stop_lat": "3.03817700",
      "stop_lon": "101.76926000"
    },
    {
      "stop_id": "12001114",
      "stop_code": "KJ30",
      "stop_name": "TAMAN MUDUN (SELATAN)",
      "stop_lat": "3.08149030",
      "stop_lon": "101.76925000"
    },
    {
      "stop_id": "12001115",
      "stop_code": "KJ811",
      "stop_name": "SERI WIRANI SEKSYEN 8 (BARAT)",
      "stop_lat": "2.97198000",
      "stop_lon": "101.76922600"
    },
    {
      "stop_id": "12001116",
      "stop_code": "KJ336",
      "stop_name": "PLAZA KASTURI",
      "stop_lat": "3.03796200",
      "stop_lon": "101.76900000"
    },
    {
      "stop_id": "12001117",
      "stop_code": "KJ39",
      "stop_name": "S.R.K. BATU 9 CHERAS (OPP)",
      "stop_lat": "3.07042400",
      "stop_lon": "101.76874500"
    },
    {
      "stop_id": "12001118",
      "stop_code": "KJ272",
      "stop_name": "SURAU NURUL HIDAYAH",
      "stop_lat": "3.05468800",
      "stop_lon": "101.76873000"
    },
    {
      "stop_id": "12001119",
      "stop_code": "KJ890",
      "stop_name": "SERI WIRANI SEKSYEN 8 (TIMUR)",
      "stop_lat": "2.97215700",
      "stop_lon": "101.76870000"
    },
    {
      "stop_id": "12001120",
      "stop_code": "KJ271",
      "stop_name": "APARTMENT TAMAN MEGAH CHERAS 3",
      "stop_lat": "3.05190300",
      "stop_lon": "101.76868400"
    },
    {
      "stop_id": "12001121",
      "stop_code": "KJ665",
      "stop_name": "CHERAS SELATAN 118",
      "stop_lat": "3.03568400",
      "stop_lon": "101.76855500"
    },
    {
      "stop_id": "12001122",
      "stop_code": "KJ260",
      "stop_name": "TAMAN DAMAI JAYA",
      "stop_lat": "3.06232700",
      "stop_lon": "101.76836400"
    },
    {
      "stop_id": "12001123",
      "stop_code": "KJ893",
      "stop_name": "DESA WANGSA APARTMENT",
      "stop_lat": "3.05096900",
      "stop_lon": "101.76742600"
    },
    {
      "stop_id": "12001124",
      "stop_code": "KJ812",
      "stop_name": "TAMAN DESA SURADA",
      "stop_lat": "2.96863100",
      "stop_lon": "101.76728000"
    },
    {
      "stop_id": "12001125",
      "stop_code": "KJ38",
      "stop_name": "TAMAN SUNTEX",
      "stop_lat": "3.07126400",
      "stop_lon": "101.76724000"
    },
    {
      "stop_id": "12001126",
      "stop_code": "KJ889",
      "stop_name": "TAMAN SERI MUTIARA",
      "stop_lat": "2.96907400",
      "stop_lon": "101.76712000"
    },
    {
      "stop_id": "12001127",
      "stop_code": "KJ261",
      "stop_name": "TAMAN KOTA CHERAS FASA 3",
      "stop_lat": "3.06587700",
      "stop_lon": "101.76655600"
    },
    {
      "stop_id": "12001128",
      "stop_code": "KJ781",
      "stop_name": "APARTMENT TERATAI",
      "stop_lat": "3.00861500",
      "stop_lon": "101.76616000"
    },
    {
      "stop_id": "12001129",
      "stop_code": "KJ666",
      "stop_name": "JEJANTAS TAMAN SRI INDAH",
      "stop_lat": "3.03212300",
      "stop_lon": "101.76609000"
    },
    {
      "stop_id": "12001130",
      "stop_code": "KJ780",
      "stop_name": "TAMAN CHERAS PRIMA (1)",
      "stop_lat": "3.01198000",
      "stop_lon": "101.76607000"
    },
    {
      "stop_id": "12001131",
      "stop_code": "KJ785",
      "stop_name": "TAMAN CHERAS PRIMA (2)",
      "stop_lat": "3.01299100",
      "stop_lon": "101.76605000"
    },
    {
      "stop_id": "12001132",
      "stop_code": "KJ343",
      "stop_name": "PERINDUSTRIAN CHERAS JAYA (3)",
      "stop_lat": "3.02064600",
      "stop_lon": "101.76574000"
    },
    {
      "stop_id": "12001133",
      "stop_code": "KJ309",
      "stop_name": "TAMAN DESA WANGSA",
      "stop_lat": "3.05214900",
      "stop_lon": "101.76569000"
    },
    {
      "stop_id": "12001134",
      "stop_code": "KJ432",
      "stop_name": "SEKSYEN 8 FASA 2 (BARAT)",
      "stop_lat": "2.96581000",
      "stop_lon": "101.76567000"
    },
    {
      "stop_id": "12001135",
      "stop_code": "KJ693",
      "stop_name": "JEJANTAS AEON CHERAS SELATAN",
      "stop_lat": "3.03222900",
      "stop_lon": "101.76553000"
    },
    {
      "stop_id": "12001136",
      "stop_code": "KJ734",
      "stop_name": "PERINDUSTRIAN CHERAS JAYA (2)",
      "stop_lat": "3.02316700",
      "stop_lon": "101.76530500"
    },
    {
      "stop_id": "12001137",
      "stop_code": "KJ915",
      "stop_name": "TAMAN SRI MUJUR",
      "stop_lat": "3.07452300",
      "stop_lon": "101.76514000"
    },
    {
      "stop_id": "12001138",
      "stop_code": "KJ25",
      "stop_name": "TAMAN ALAM JAYA (UTARA)",
      "stop_lat": "3.08080100",
      "stop_lon": "101.76490000"
    },
    {
      "stop_id": "12001139",
      "stop_code": "KJ431",
      "stop_name": "SEKSYEN 8 FASA 2 (TIMUR)",
      "stop_lat": "2.96591900",
      "stop_lon": "101.76463000"
    },
    {
      "stop_id": "12001140",
      "stop_code": "KJ308",
      "stop_name": "SEK. KEB. BTHO",
      "stop_lat": "3.05366600",
      "stop_lon": "101.76461000"
    },
    {
      "stop_id": "12001141",
      "stop_code": "KJ782",
      "stop_name": "SURAU TAMAN SUTERA (OPP)",
      "stop_lat": "3.00705100",
      "stop_lon": "101.76448000"
    },
    {
      "stop_id": "12001142",
      "stop_code": "KJ733",
      "stop_name": "PERINDUSTRIAN CHERAS JAYA (1)",
      "stop_lat": "3.02625080",
      "stop_lon": "101.76414000"
    },
    {
      "stop_id": "12001144",
      "stop_code": "KJ784",
      "stop_name": "FLAT CHERAS PRIMA",
      "stop_lat": "3.01305200",
      "stop_lon": "101.76341000"
    },
    {
      "stop_id": "12001145",
      "stop_code": "KJ307",
      "stop_name": "PERUMAHAN SUASANA 5",
      "stop_lat": "3.05355000",
      "stop_lon": "101.76337400"
    },
    {
      "stop_id": "12001146",
      "stop_code": "KJ667",
      "stop_name": "SUSUR CHERAS JAYA",
      "stop_lat": "3.03077100",
      "stop_lon": "101.76337000"
    },
    {
      "stop_id": "12001147",
      "stop_code": "KJ31",
      "stop_name": "TAMAN ALAM JAYA (SELATAN)",
      "stop_lat": "3.07780300",
      "stop_lon": "101.76334000"
    },
    {
      "stop_id": "12001148",
      "stop_code": "KJ736",
      "stop_name": "TAMAN CHERAS JAYA PERINGKAT 1",
      "stop_lat": "3.02736300",
      "stop_lon": "101.76334000"
    },
    {
      "stop_id": "12001149",
      "stop_code": "KJ357",
      "stop_name": "TAMAN CHERAS JAYA FASA 1 2A/2B",
      "stop_lat": "3.02573300",
      "stop_lon": "101.76322000"
    },
    {
      "stop_id": "12001150",
      "stop_code": "KJ870",
      "stop_name": "COLOMBIA ASIA HOSPITAL",
      "stop_lat": "3.03108600",
      "stop_lon": "101.76318000"
    },
    {
      "stop_id": "12001151",
      "stop_code": "KJ10",
      "stop_name": "(M1) HAB TAMAN AWANA CHERAS",
      "stop_lat": "3.08796200",
      "stop_lon": "101.76289000"
    },
    {
      "stop_id": "12001152",
      "stop_code": "KJ351",
      "stop_name": "SEK. KEB CHERAS JAYA (OPP)",
      "stop_lat": "3.01909300",
      "stop_lon": "101.76278000"
    },
    {
      "stop_id": "12001153",
      "stop_code": "KJ264",
      "stop_name": "TAMAN PUTRI JAYA",
      "stop_lat": "3.06737100",
      "stop_lon": "101.76265000"
    },
    {
      "stop_id": "12001154",
      "stop_code": "KJ283",
      "stop_name": "TAMAN LAGENDA MAS",
      "stop_lat": "3.06597970",
      "stop_lon": "101.76124600"
    },
    {
      "stop_id": "12001156",
      "stop_code": "KJ876",
      "stop_name": "KOMERSIAL SEKSYEN 6",
      "stop_lat": "2.96191000",
      "stop_lon": "101.76095600"
    },
    {
      "stop_id": "12001157",
      "stop_code": "KJ674",
      "stop_name": "KOMERSIAL DUTAMAS CHERAS",
      "stop_lat": "3.03022200",
      "stop_lon": "101.76095600"
    },
    {
      "stop_id": "12001159",
      "stop_code": "KJ783",
      "stop_name": "SUTERA RESIDENCES",
      "stop_lat": "3.01152900",
      "stop_lon": "101.76086400"
    },
    {
      "stop_id": "12001160",
      "stop_code": "KJ875",
      "stop_name": "PUNCAK BANGI (OPP)",
      "stop_lat": "2.95903500",
      "stop_lon": "101.76063000"
    },
    {
      "stop_id": "12001161",
      "stop_code": "KJ306",
      "stop_name": "PERUMAHAN SUASANA 4 (OPP)",
      "stop_lat": "3.05284700",
      "stop_lon": "101.76048000"
    },
    {
      "stop_id": "12001162",
      "stop_code": "KJ352",
      "stop_name": "TAMAN CHERAS JAYA FASA 5",
      "stop_lat": "3.01895500",
      "stop_lon": "101.76002500"
    },
    {
      "stop_id": "12001163",
      "stop_code": "KJ813",
      "stop_name": "KG. SG. RAMAL DALAM (BARAT)",
      "stop_lat": "2.96578900",
      "stop_lon": "101.75994000"
    },
    {
      "stop_id": "12001164",
      "stop_code": "KJ892",
      "stop_name": "KOMERSIAL SUADAMAI (OPP)",
      "stop_lat": "3.05505300",
      "stop_lon": "101.75949000"
    },
    {
      "stop_id": "12001165",
      "stop_code": "KJ291",
      "stop_name": "PANGSAPURI WIRA",
      "stop_lat": "3.06320670",
      "stop_lon": "101.75880400"
    },
    {
      "stop_id": "12001166",
      "stop_code": "KJ535",
      "stop_name": "PERSIMPANGAN JLN DATO DAGANG",
      "stop_lat": "2.96232700",
      "stop_lon": "101.75873000"
    },
    {
      "stop_id": "12001167",
      "stop_code": "KJ433",
      "stop_name": "D'8 BANDAR BARU BANGI (SELATAN)",
      "stop_lat": "2.96369400",
      "stop_lon": "101.75868000"
    },
    {
      "stop_id": "12001168",
      "stop_code": "KJ869",
      "stop_name": "(M1) TAMAN CHERAS JAYA FASA 7",
      "stop_lat": "3.01998900",
      "stop_lon": "101.75851000"
    },
    {
      "stop_id": "12001169",
      "stop_code": "KJ888",
      "stop_name": "KG. SG. RAMAL DALAM (TIMUR)",
      "stop_lat": "2.96590400",
      "stop_lon": "101.75814000"
    },
    {
      "stop_id": "12001170",
      "stop_code": "KJ353",
      "stop_name": "TAMAN CHERAS JAYA FASA 3 (OPP)",
      "stop_lat": "3.02199000",
      "stop_lon": "101.75798000"
    },
    {
      "stop_id": "12001171",
      "stop_code": "KJ430",
      "stop_name": "SURAU AL-AMIN SEKSYEN 8",
      "stop_lat": "2.96437500",
      "stop_lon": "101.75764500"
    },